[{"city": "Cambridge", "location": "United States", "ranking": "1", "name": "Massachusetts Institute of Technology (MIT)"}, {"city": "Cambridge", "location": "United Kingdom", "ranking": "2", "name": "University of Cambridge"}, {"city": "Stanford", "location": "United States", "ranking": "3", "name": "Stanford University"}, {"city": "Oxford", "location": "United Kingdom", "ranking": "4", "name": "University of Oxford"}, {"city": "Cambridge", "location": "United States", "ranking": "5", "name": "Harvard University"}, {"city": "Pasadena", "location": "United States", "ranking": "6", "name": "California Institute of Technology (Caltech)"}, {"city": "London", "location": "United Kingdom", "ranking": "7", "name": "Imperial College London"}, {"city": "London", "location": "United Kingdom", "ranking": "8", "name": "UCL"}, {"city": "Z\u00fcrich", "location": "Switzerland", "ranking": "9", "name": "ETH Zurich"}, {"city": "Chicago", "location": "United States", "ranking": "10", "name": "University of Chicago"}, {"city": "Singapore", "location": "Singapore", "ranking": "11", "name": "National University of Singapore (NUS)"}, {"city": "Beijing", "location": "China (Mainland)", "ranking": "12", "name": "Peking University"}, {"city": "Philadelphia", "location": "United States", "ranking": "13", "name": "University of Pennsylvania"}, {"city": "Beijing", "location": "China (Mainland)", "ranking": "14", "name": "Tsinghua University"}, {"city": "Edinburgh", "location": "United Kingdom", "ranking": "15", "name": "The University of Edinburgh"}, {"city": "Lausanne", "location": "Switzerland", "ranking": "16", "name": "EPFL"}, {"city": "Princeton", "location": "United States", "ranking": "17", "name": "Princeton University"}, {"city": "New Haven", "location": "United States", "ranking": "18", "name": "Yale University"}, {"city": "Singapore", "location": "Singapore", "ranking": "19", "name": "Nanyang Technological University, Singapore (NTU Singapore)"}, {"city": "Ithaca", "location": "United States", "ranking": "20", "name": "Cornell University"}, {"city": "Hong Kong", "location": "Hong Kong SAR", "ranking": "21", "name": "The University of Hong Kong"}, {"city": "New York City", "location": "United States", "ranking": "22", "name": "Columbia University"}, {"city": "Tokyo", "location": "Japan", "ranking": "23", "name": "The University of Tokyo"}, {"city": "Baltimore", "location": "United States", "ranking": "24", "name": "Johns Hopkins University"}, {"city": "Ann Arbor", "location": "United States", "ranking": "25", "name": "University of Michigan-Ann Arbor"}, {"city": "Paris", "location": "France", "ranking": "26", "name": "Universit\u00e9 PSL"}, {"city": "Berkeley", "location": "United States", "ranking": "27", "name": "University of California, Berkeley (UCB)"}, {"city": "Manchester", "location": "United Kingdom", "ranking": "28", "name": "The University of Manchester"}, {"city": "Seoul", "location": "South Korea", "ranking": "29", "name": "Seoul National University"}, {"city": "Canberra", "location": "Australia", "ranking": "30", "name": "Australian National University (ANU)"}, {"city": "Montreal", "location": "Canada", "ranking": "31", "name": "McGill University"}, {"city": "Evanston", "location": "United States", "ranking": "32", "name": "Northwestern University"}, {"city": "Parkville", "location": "Australia", "ranking": "33", "name": "The University of Melbourne"}, {"city": "Shanghai", "location": "China (Mainland)", "ranking": "34", "name": "Fudan University"}, {"city": "Toronto", "location": "Canada", "ranking": "35", "name": "University of Toronto"}, {"city": "Kyoto", "location": "Japan", "ranking": "36", "name": "Kyoto University"}, {"city": "London", "location": "United Kingdom", "ranking": "37", "name": "King's College London"}, {"city": "Hong Kong SAR", "location": "Hong Kong SAR", "ranking": "38", "name": "The Chinese University of Hong Kong (CUHK)"}, {"city": "New York City", "location": "United States", "ranking": "39", "name": "New York University (NYU)"}, {"city": "Hong Kong SAR", "location": "Hong Kong SAR", "ranking": "40", "name": "The Hong Kong University of Science and Technology"}, {"city": "Sydney", "location": "Australia", "ranking": "41", "name": "The University of Sydney"}, {"city": "Daejeon", "location": "South Korea", "ranking": "42", "name": "KAIST - Korea Advanced Institute of Science & Technology"}, {"city": "Hangzhou", "location": "China (Mainland)", "ranking": "43", "name": "Zhejiang University"}, {"city": "Los Angeles", "location": "United States", "ranking": "44", "name": "University of California, Los Angeles (UCLA)"}, {"city": "Sydney", "location": "Australia", "ranking": "45", "name": "The University of New South Wales (UNSW Sydney)"}, {"city": "Shanghai", "location": "China (Mainland)", "ranking": "46", "name": "Shanghai Jiao Tong University"}, {"city": "Vancouver", "location": "Canada", "ranking": "47", "name": "University of British Columbia"}, {"city": "Palaiseau Cedex", "location": "France", "ranking": "48", "name": "Institut Polytechnique de Paris"}, {"city": "Munich", "location": "Germany", "ranking": "49", "name": "Technical University of Munich"}, {"city": "Durham", "location": "United States", "ranking": "50", "name": "Duke University"}, {"city": "Brisbane City", "location": "Australia", "ranking": "51", "name": "The University of Queensland"}, {"city": "Pittsburgh", "location": "United States", "ranking": "52", "name": "Carnegie Mellon University"}, {"city": "San Diego", "location": "United States", "ranking": "53", "name": "University of California, San Diego (UCSD)"}, {"city": "", "location": "Hong Kong SAR", "ranking": "54", "name": "City University of Hong Kong"}, {"city": "Tokyo", "location": "Japan", "ranking": "55", "name": "Tokyo Institute of Technology (Tokyo Tech)"}, {"city": "London", "location": "United Kingdom", "ranking": "56", "name": "The London School of Economics and Political Science (LSE)"}, {"city": "Melbourne", "location": "Australia", "ranking": "57", "name": "Monash University"}, {"city": "Amsterdam", "location": "Netherlands", "ranking": "58", "name": "University of Amsterdam"}, {"city": "Munich", "location": "Germany", "ranking": "59", "name": "Ludwig-Maximilians-Universit\u00e4t M\u00fcnchen"}, {"city": "Paris", "location": "France", "ranking": "60", "name": "Sorbonne University"}, {"city": "Delft", "location": "Netherlands", "ranking": "61", "name": "Delft University of Technology"}, {"city": "Bristol", "location": "United Kingdom", "ranking": "62", "name": "University of Bristol"}, {"city": "Providence", "location": "United States", "ranking": "63", "name": "Brown University"}, {"city": "Coventry", "location": "United Kingdom", "ranking": "64", "name": "The University of Warwick"}, {"city": "69117 Heidelberg,", "location": "Germany", "ranking": "65", "name": "Universit\u00e4t Heidelberg"}, {"city": "Hong Kong SAR", "location": "Hong Kong SAR", "ranking": "66", "name": "The Hong Kong Polytechnic University"}, {"city": "Buenos Aires", "location": "Argentina", "ranking": "67", "name": "Universidad de Buenos Aires (UBA)"}, {"city": "Osaka City", "location": "Japan", "ranking": "68", "name": "Osaka University"}, {"city": "Gif-sur-Yvette,", "location": "France", "ranking": "69", "name": "Universit\u00e9 Paris-Saclay"}, {"city": "Kuala Lumpur", "location": "Malaysia", "ranking": "70", "name": "Universiti Malaya (UM)"}, {"city": "Pohang ", "location": "South Korea", "ranking": "71", "name": "Pohang University of Science And Technology (POSTECH)"}, {"city": "Austin", "location": "United States", "ranking": "72", "name": "University of Texas at Austin"}, {"city": "Seoul", "location": "South Korea", "ranking": "73", "name": "Yonsei University"}, {"city": "Seoul", "location": "South Korea", "ranking": "74", "name": "Korea University"}, {"city": "Moscow", "location": "Russia", "ranking": "75", "name": "Lomonosov Moscow State University"}, {"city": "Leuven", "location": "Belgium", "ranking": "76", "name": "KU Leuven"}, {"city": "Taipei City", "location": "Taiwan", "ranking": "77", "name": "National Taiwan University (NTU)"}, {"city": "Southampton", "location": "United Kingdom", "ranking": "78", "name": "University of Southampton"}, {"city": "Sendai City", "location": "Japan", "ranking": "79", "name": "Tohoku University"}, {"city": "Seattle", "location": "United States", "ranking": "80", "name": "University of Washington"}, {"city": "Glasgow", "location": "United Kingdom", "ranking": "81", "name": "University of Glasgow"}, {"city": "Copenhagen", "location": "Denmark", "ranking": "82", "name": "University of Copenhagen"}, {"city": "Madison", "location": "United States", "ranking": "83", "name": "University of Wisconsin-Madison"}, {"city": "Z\u00fcrich", "location": "Switzerland", "ranking": "84", "name": "University of Zurich"}, {"city": "Champaign", "location": "United States", "ranking": "85", "name": "University of Illinois at Urbana-Champaign"}, {"city": "Leeds", "location": "United Kingdom", "ranking": "86", "name": "University of Leeds"}, {"city": "Auckland", "location": "New Zealand", "ranking": "87", "name": "The University of Auckland"}, {"city": "Atlanta", "location": "United States", "ranking": "88", "name": "Georgia Institute of Technology"}, {"city": "Stockholm", "location": "Sweden", "ranking": "89", "name": "KTH Royal Institute of Technology"}, {"city": "Perth", "location": "Australia", "ranking": "90", "name": "The University of Western Australia"}, {"city": "Birmingham", "location": "United Kingdom", "ranking": "91", "name": "University of Birmingham"}, {"city": "Durham", "location": "United Kingdom", "ranking": "92", "name": "Durham University"}, {"city": "University Park", "location": "United States", "ranking": "93", "name": "Pennsylvania State University"}, {"city": "Hefei", "location": "China (Mainland)", "ranking": "94", "name": "University of Science and Technology of China"}, {"city": "Lund", "location": "Sweden", "ranking": "95", "name": "Lund University"}, {"city": "Sheffield", "location": "United Kingdom", "ranking": "96", "name": "The University of Sheffield"}, {"city": "St. Andrews", "location": "United Kingdom", "ranking": "97", "name": "University of St Andrews"}, {"city": "Dublin", "location": "Ireland", "ranking": "98", "name": "Trinity College Dublin, The University of Dublin"}, {"city": "Suwon", "location": "South Korea", "ranking": "99", "name": "Sungkyunkwan University (SKKU)"}, {"city": "Houston", "location": "United States", "ranking": "100", "name": "Rice University"}, {"city": "Oslo", "location": "Norway", "ranking": "101", "name": "University of Oslo"}, {"city": "Davis", "location": "United States", "ranking": "102", "name": "University of California, Davis"}, {"city": "Chapel Hill", "location": "United States", "ranking": "103", "name": "University of North Carolina at Chapel Hill"}, {"city": "Kongens Lyngby", "location": "Denmark", "ranking": "104", "name": "Technical University of Denmark"}, {"city": "Mexico City", "location": "Mexico", "ranking": "105", "name": "Universidad Nacional Aut\u00f3noma de M\u00e9xico  (UNAM)"}, {"city": "Jeddah", "location": "Saudi Arabia", "ranking": "106", "name": "King Abdulaziz University (KAU)"}, {"city": "Helsinki", "location": "Finland", "ranking": "107", "name": "University of Helsinki"}, {"city": "Boston", "location": "United States", "ranking": "108", "name": "Boston University"}, {"city": "Adelaide", "location": "Australia", "ranking": "109", "name": "The University of Adelaide"}, {"city": "Edmonton", "location": "Canada", "ranking": "110", "name": "University of Alberta"}, {"city": "Lyon", "location": "France", "ranking": "111", "name": "\u00c9cole Normale Sup\u00e9rieure de Lyon"}, {"city": "Nagoya", "location": "Japan", "ranking": "112", "name": "Nagoya University"}, {"city": "Utrecht", "location": "Netherlands", "ranking": "113", "name": "Utrecht University"}, {"city": "Nottingham", "location": "United Kingdom", "ranking": "114", "name": "University of Nottingham"}, {"city": "S\u00e3o Paulo", "location": "Brazil", "ranking": "115", "name": "Universidade de S\u00e3o Paulo"}, {"city": "Espoo", "location": "Finland", "ranking": "116", "name": "Aalto University"}, {"city": "Montreal", "location": "Canada", "ranking": "117", "name": "Universit\u00e9 de Montr\u00e9al"}, {"city": "Berlin", "location": "Germany", "ranking": "118", "name": "Freie Universitaet Berlin"}, {"city": "St. Louis", "location": "United States", "ranking": "119", "name": "Washington University in St. Louis"}, {"city": "Bern", "location": "Switzerland", "ranking": "120", "name": "University of Bern"}, {"city": "Santiago", "location": "Chile", "ranking": "121", "name": "Pontificia Universidad Cat\u00f3lica de Chile (UC)"}, {"city": "Newcastle upon Tyne", "location": "United Kingdom", "ranking": "122", "name": "Newcastle University"}, {"city": "Seri Kembangan", "location": "Malaysia", "ranking": "123", "name": "Universiti Putra Malaysia (UPM)"}, {"city": "Wageningen", "location": "Netherlands", "ranking": "124", "name": "Wageningen University & Research"}, {"city": "Gothenburg", "location": "Sweden", "ranking": "125", "name": "Chalmers University of Technology"}, {"city": "London", "location": "United Kingdom", "ranking": "126", "name": "Queen Mary University of London"}, {"city": "Geneva", "location": "Switzerland", "ranking": "127", "name": "University of Geneva"}, {"city": "Uppsala", "location": "Sweden", "ranking": "128", "name": "Uppsala University"}, {"city": "West Lafayette", "location": "United States", "ranking": "129", "name": "Purdue University"}, {"city": "Bangi", "location": "Malaysia", "ranking": "130", "name": "Universiti Kebangsaan Malaysia (UKM)"}, {"city": "Berlin", "location": "Germany", "ranking": "131", "name": "Humboldt-Universit\u00e4t zu Berlin"}, {"city": "Leiden", "location": "Netherlands", "ranking": "132", "name": "Leiden University"}, {"city": "Nanjing", "location": "China (Mainland)", "ranking": "133", "name": "Nanjing University"}, {"city": "Los Angeles", "location": "United States", "ranking": "134", "name": "University of Southern California"}, {"city": "Fukuoka City", "location": "Japan", "ranking": "135", "name": "Kyushu University"}, {"city": "Basel", "location": "Switzerland", "ranking": "136", "name": "University of Basel"}, {"city": "Haymarket", "location": "Australia", "ranking": "137", "name": "University of Technology Sydney"}, {"city": "Eindhoven", "location": "Netherlands", "ranking": "138", "name": "Eindhoven University of Technology"}, {"city": "Milan", "location": "Italy", "ranking": "139", "name": "Politecnico di Milano"}, {"city": "Columbus", "location": "United States", "ranking": "140", "name": "The Ohio State University"}, {"city": "Sapporo", "location": "Japan", "ranking": "141", "name": "Hokkaido University"}, {"city": "Karlsruhe", "location": "Germany", "ranking": "142", "name": "KIT, Karlsruhe Institute of Technology"}, {"city": "Ghent", "location": "Belgium", "ranking": "143", "name": "Ghent University"}, {"city": "Gelugor", "location": "Malaysia", "ranking": "144", "name": "Universiti Sains Malaysia (USM)"}, {"city": "Groningen", "location": "Netherlands", "ranking": "145", "name": "University of Groningen"}, {"city": "Lancaster,", "location": "United Kingdom", "ranking": "146", "name": "Lancaster University"}, {"city": "Aachen", "location": "Germany", "ranking": "147", "name": "RWTH Aachen University"}, {"city": "Rochester", "location": "United States", "ranking": "148", "name": "University of Rochester"}, {"city": "Santa Barbara", "location": "United States", "ranking": "149", "name": "University of California, Santa Barbara (UCSB)"}, {"city": "Almaty", "location": "Kazakhstan", "ranking": "150", "name": "Al-Farabi Kazakh National University"}, {"city": "Vienna", "location": "Austria", "ranking": "151", "name": "University of Vienna"}, {"city": "Hamilton", "location": "Canada", "ranking": "152", "name": "McMaster University"}, {"city": "Stockholm", "location": "Sweden", "ranking": "153", "name": "Stockholm University"}, {"city": "Waterloo", "location": "Canada", "ranking": "154", "name": "University of Waterloo"}, {"city": "Atlanta", "location": "United States", "ranking": "155", "name": "Emory University"}, {"city": "Bangalore", "location": "India", "ranking": "156", "name": "Indian Institute of Science"}, {"city": "Seoul", "location": "South Korea", "ranking": "157", "name": "Hanyang University"}, {"city": "Berlin", "location": "Germany", "ranking": "158", "name": "Technische Universit\u00e4t Berlin (TU Berlin)"}, {"city": "East Lansing", "location": "United States", "ranking": "159", "name": "Michigan State University"}, {"city": "Dhahran", "location": "Saudi Arabia", "ranking": "160", "name": "King Fahd University of Petroleum & Minerals"}, {"city": "Aarhus", "location": "Denmark", "ranking": "161", "name": "Aarhus University"}, {"city": "York", "location": "United Kingdom", "ranking": "162", "name": "University of York"}, {"city": "Exeter", "location": "United Kingdom", "ranking": "163", "name": "University of Exeter"}, {"city": "College Station", "location": "United States", "ranking": "164", "name": "Texas A&M University"}, {"city": "College Park", "location": "United States", "ranking": "165", "name": "University of Maryland, College Park"}, {"city": "Cardiff", "location": "United Kingdom", "ranking": "166", "name": "Cardiff University"}, {"city": "Bologna", "location": "Italy", "ranking": "167", "name": "Alma Mater Studiorum - University of Bologna"}, {"city": "Santiago", "location": "Chile", "ranking": "168", "name": "Universidad de Chile"}, {"city": "T\u00fcbingen", "location": "Germany", "ranking": "169", "name": "Eberhard Karls Universit\u00e4t T\u00fcbingen"}, {"city": "Monterrey", "location": "Mexico", "ranking": "170", "name": "Tecnol\u00f3gico de Monterrey"}, {"city": "Rome", "location": "Italy", "ranking": "171", "name": "Sapienza University of Rome"}, {"city": "Mumbai", "location": "India", "ranking": "172", "name": "Indian Institute of Technology Bombay (IITB)"}, {"city": "London", "location": "Canada", "ranking": "173", "name": "Western University"}, {"city": "Paris", "location": "France", "ranking": "174", "name": "Ecole des Ponts ParisTech"}, {"city": "New Delhi", "location": "India", "ranking": "175", "name": "Indian Institute of Technology Delhi (IITD)"}, {"city": "Cleveland", "location": "United States", "ranking": "176", "name": "Case Western Reserve University"}, {"city": "Hsinchu City", "location": "Taiwan", "ranking": "177", "name": "National Tsing Hua University"}, {"city": "Barcelona", "location": "Spain", "ranking": "178", "name": "Universitat Aut\u00f2noma de Barcelona"}, {"city": "Vienna", "location": "Austria", "ranking": "179", "name": "Technische Universit\u00e4t Wien"}, {"city": "Bath", "location": "United Kingdom", "ranking": "180", "name": "University of Bath"}, {"city": "Abu Dhabi", "location": "United Arab Emirates", "ranking": "181", "name": "Khalifa University"}, {"city": "Dublin", "location": "Ireland", "ranking": "182", "name": "University College Dublin"}, {"city": "Pittsburgh", "location": "United States", "ranking": "183", "name": "University of Pittsburgh"}, {"city": "Barcelona", "location": "Spain", "ranking": "184", "name": "Universitat de Barcelona"}, {"city": "Gothenburg", "location": "Sweden", "ranking": "185", "name": "University of Gothenburg"}, {"city": "Minneapolis", "location": "United States", "ranking": "186", "name": "University of Minnesota Twin Cities"}, {"city": "Wollongong", "location": "Australia", "ranking": "187", "name": "University of Wollongong"}, {"city": "Gainesville", "location": "United States", "ranking": "188", "name": "University of Florida"}, {"city": "Freiburg im Breisgau", "location": "Germany", "ranking": "189", "name": "Albert-Ludwigs-Universitaet Freiburg"}, {"city": "Melbourne", "location": "Australia", "ranking": "190", "name": "RMIT University"}, {"city": "Liverpool", "location": "United Kingdom", "ranking": "191", "name": "University of Liverpool"}, {"city": "Callaghan", "location": "Australia", "ranking": "192", "name": "The University of Newcastle, Australia (UON)"}, {"city": "Perth", "location": "Australia", "ranking": "193", "name": "Curtin University"}, {"city": "Wuhan", "location": "China (Mainland)", "ranking": "194", "name": "Wuhan University"}, {"city": "Sydney", "location": "Australia", "ranking": "195", "name": "Macquarie University"}, {"city": "Louvain-la-Neuve", "location": "Belgium", "ranking": "196", "name": "Universit\u00e9 catholique de Louvain (UCLouvain)"}, {"city": "Tokyo", "location": "Japan", "ranking": "197", "name": "Keio University"}, {"city": "", "location": "South Korea", "ranking": "198", "name": "Ulsan National Institute of Science and Technology (UNIST)"}, {"city": "Nashville", "location": "United States", "ranking": "199", "name": "Vanderbilt University"}, {"city": "Dresden", "location": "Germany", "ranking": "200", "name": "Technische Universit\u00e4t Dresden"}, {"city": "Bonn", "location": "Germany", "ranking": "201", "name": "Rheinische Friedrich-Wilhelms-Universit\u00e4t Bonn"}, {"city": "Hsinchu City", "location": "Taiwan", "ranking": "202", "name": "National Yang Ming Chiao Tung University"}, {"city": "Skudai", "location": "Malaysia", "ranking": "203", "name": "Universiti Teknologi Malaysia"}, {"city": "Lausanne", "location": "Switzerland", "ranking": "204", "name": "University of Lausanne"}, {"city": "Hanover", "location": "United States", "ranking": "205", "name": "Dartmouth College"}, {"city": "Tokyo", "location": "Japan", "ranking": "206", "name": "Waseda University"}, {"city": "Bergen", "location": "Norway", "ranking": "207", "name": "University of Bergen"}, {"city": "Rotterdam", "location": "Netherlands", "ranking": "208", "name": "Erasmus University Rotterdam"}, {"city": "Doha", "location": "Qatar", "ranking": "209", "name": "Qatar University"}, {"city": "Campinas", "location": "Brazil", "ranking": "210", "name": "Universidade Estadual de Campinas (Unicamp)"}, {"city": "Brussels", "location": "Belgium", "ranking": "211", "name": "Universite libre de Bruxelles"}, {"city": "Shanghai", "location": "China (Mainland)", "ranking": "212", "name": "Tongji University"}, {"city": "Enschede", "location": "Netherlands", "ranking": "213", "name": "University of Twente"}, {"city": "Amsterdam", "location": "Netherlands", "ranking": "214", "name": "Vrije Universiteit Amsterdam"}, {"city": "Madrid", "location": "Spain", "ranking": "215", "name": "Universidad Aut\u00f3noma de Madrid"}, {"city": "G\u00f6ttingen", "location": "Germany", "ranking": "216", "name": "University of G\u00f6ttingen"}, {"city": "Harbin", "location": "China (Mainland)", "ranking": "217", "name": "Harbin Institute of Technology"}, {"city": "Dunedin", "location": "New Zealand", "ranking": "218", "name": "University of Otago"}, {"city": "Tempe", "location": "United States", "ranking": "219", "name": "Arizona State University"}, {"city": "Bogot\u00e1", "location": "Colombia", "ranking": "220", "name": "Universidad de los Andes"}, {"city": "Aberdeen", "location": "United Kingdom", "ranking": "221", "name": "University of Aberdeen"}, {"city": "Brisbane", "location": "Australia", "ranking": "222", "name": "Queensland University of Technology (QUT)"}, {"city": "Jerusalem", "location": "Israel", "ranking": "223", "name": "The Hebrew University of Jerusalem"}, {"city": "Bangkok", "location": "Thailand", "ranking": "224", "name": "Chulalongkorn University"}, {"city": "Tainan City", "location": "Taiwan", "ranking": "225", "name": "National Cheng Kung University (NCKU)"}, {"city": "Madrid", "location": "Spain", "ranking": "226", "name": "Complutense University of Madrid"}, {"city": "Shenzhen", "location": "China (Mainland)", "ranking": "227", "name": "Southern University of Science and Technology (SUSTech)"}, {"city": "Hamburg", "location": "Germany", "ranking": "228", "name": "Universit\u00e4t Hamburg"}, {"city": "Reading", "location": "United Kingdom", "ranking": "229", "name": "University of Reading"}, {"city": "Moscow", "location": "Russia", "ranking": "230", "name": "Bauman Moscow State Technical University"}, {"city": "Yogyakarta", "location": "Indonesia", "ranking": "231", "name": "Gadjah Mada University"}, {"city": "Nijmegen", "location": "Netherlands", "ranking": "232", "name": "Radboud University"}, {"city": "Belfast", "location": "United Kingdom", "ranking": "233", "name": "Queen's University Belfast"}, {"city": "Barcelona", "location": "Spain", "ranking": "234", "name": "Universitat Pompeu Fabra (Barcelona)"}, {"city": "Bandung", "location": "Indonesia", "ranking": "235", "name": "Bandung Institute of Technology (ITB)"}, {"city": "Irvine", "location": "United States", "ranking": "236", "name": "University of California, Irvine"}, {"city": "Riyadh", "location": "Saudi Arabia", "ranking": "237", "name": "King Saud University"}, {"city": "Cape Town", "location": "South Africa", "ranking": "238", "name": "University of Cape Town"}, {"city": "Ottawa", "location": "Canada", "ranking": "239", "name": "University of Ottawa"}, {"city": "Lugano", "location": "Switzerland", "ranking": "240", "name": "USI - Universit\u00e0 della Svizzera italiana"}, {"city": "Brighton", "location": "United Kingdom", "ranking": "241", "name": "University of Sussex"}, {"city": "Calgary", "location": "Canada", "ranking": "242", "name": "University of Calgary"}, {"city": "Bogot\u00e1", "location": "Colombia", "ranking": "243", "name": "Universidad Nacional de Colombia"}, {"city": "Notre Dame", "location": "United States", "ranking": "244", "name": "University of Notre Dame"}, {"city": "Padova", "location": "Italy", "ranking": "245", "name": "Universit\u00e0 di Padova"}, {"city": "Kingston", "location": "Canada", "ranking": "246", "name": "Queen's University at Kingston"}, {"city": "New York City", "location": "United States", "ranking": "247", "name": "Yeshiva University"}, {"city": "Depok", "location": "Indonesia", "ranking": "248", "name": "Universitas Indonesia"}, {"city": "Paris", "location": "France", "ranking": "249", "name": "Universit\u00e9 Paris Cit\u00e9"}, {"city": "Chennai", "location": "India", "ranking": "250", "name": "Indian Institute of Technology Madras (IITM)"}, {"city": "Brussels", "location": "Belgium", "ranking": "251", "name": "Vrije Universiteit Brussel (VUB)"}, {"city": "Beirut ", "location": "Lebanon", "ranking": "252", "name": "American University of Beirut (AUB)"}, {"city": "Amherst", "location": "United States", "ranking": "253", "name": "University of Massachusetts Amherst"}, {"city": "Pamplona", "location": "Spain", "ranking": "254", "name": "University of Navarra"}, {"city": "Charlottesville", "location": "United States", "ranking": "255", "name": "University of Virginia"}, {"city": "Loughborough", "location": "United Kingdom", "ranking": "256", "name": "Loughborough University"}, {"city": "Nakhon Pathom", "location": "Thailand", "ranking": "257", "name": "Mahidol University"}, {"city": "Bandar Seri Begawan", "location": "Brunei", "ranking": "258", "name": "Universiti Brunei Darussalam (UBD)"}, {"city": "Paris", "location": "France", "ranking": "259", "name": "Sciences Po"}, {"city": "Novosibirsk ", "location": "Russia", "ranking": "260", "name": "Novosibirsk State University"}, {"city": "Tel Aviv", "location": "Israel", "ranking": "261", "name": "Tel Aviv University"}, {"city": "Beijing", "location": "China (Mainland)", "ranking": "262", "name": "Beijing Normal University"}, {"city": "Tucson", "location": "United States", "ranking": "263", "name": "The University of Arizona"}, {"city": "Kanpur", "location": "India", "ranking": "264", "name": "Indian Institute of Technology Kanpur (IITK)"}, {"city": "Tomsk", "location": "Russia", "ranking": "265", "name": "Tomsk State University"}, {"city": "Burwood", "location": "Australia", "ranking": "266", "name": "Deakin University"}, {"city": "Dolgoprudny", "location": "Russia", "ranking": "267", "name": "Moscow Institute of Physics and Technology (MIPT / Moscow Phystech)"}, {"city": "New Brunswick", "location": "United States", "ranking": "268", "name": "Rutgers University\u2013New Brunswick"}, {"city": "Guangzhou", "location": "China (Mainland)", "ranking": "269", "name": "Sun Yat-sen University"}, {"city": "Kharagpur", "location": "India", "ranking": "270", "name": "Indian Institute of Technology Kharagpur (IIT-KGP)"}, {"city": "", "location": "South Korea", "ranking": "271", "name": "Kyung Hee University"}, {"city": "Galway", "location": "Ireland", "ranking": "272", "name": "University of Galway"}, {"city": "Saint Petersburg", "location": "Russia", "ranking": "273", "name": "Saint Petersburg State University"}, {"city": "Porto", "location": "Portugal", "ranking": "274", "name": "University of Porto"}, {"city": "Darmstadt", "location": "Germany", "ranking": "275", "name": "Technical University of Darmstadt"}, {"city": "Kelburn, Wellington", "location": "New Zealand", "ranking": "276", "name": "Victoria University of Wellington"}, {"city": "Nur-Sultan", "location": "Kazakhstan", "ranking": "277", "name": "L.N. Gumilyov Eurasian National University (ENU)"}, {"city": "Maastricht", "location": "Netherlands", "ranking": "278", "name": "Maastricht University"}, {"city": "Leicester", "location": "United Kingdom", "ranking": "279", "name": "University of Leicester"}, {"city": "Antwerp", "location": "Belgium", "ranking": "280", "name": "University of Antwerp"}, {"city": "Washington D.C.", "location": "United States", "ranking": "281", "name": "Georgetown University"}, {"city": "Edinburgh", "location": "United Kingdom", "ranking": "282", "name": "Heriot-Watt University"}, {"city": "Hong Kong", "location": "Hong Kong SAR", "ranking": "283", "name": "Hong Kong Baptist University"}, {"city": "Graz", "location": "Austria", "ranking": "284", "name": "Graz University of Technology"}, {"city": "Subang Jaya", "location": "Malaysia", "ranking": "285", "name": "Taylor's University"}, {"city": "Kuala Lumpur", "location": "Malaysia", "ranking": "286", "name": "UCSI University"}, {"city": "Warsaw", "location": "Poland", "ranking": "287", "name": "University of Warsaw"}, {"city": "Christchurch", "location": "New Zealand", "ranking": "287", "name": "University of Canterbury | Te Whare W\u0101nanga o Waitaha"}, {"city": "Minsk", "location": "Belarus", "ranking": "288", "name": "Belarusian State University"}, {"city": "Prague", "location": "Czechia", "ranking": "289", "name": "Charles University"}, {"city": "Gwangju", "location": "South Korea", "ranking": "290", "name": "Gwangju Institute of Science and Technology (GIST)"}, {"city": "Turku", "location": "Finland", "ranking": "291", "name": "University of Turku"}, {"city": "Palmerston North", "location": "New Zealand", "ranking": "292", "name": "Massey University"}, {"city": "Krakow", "location": "Poland", "ranking": "293", "name": "Jagiellonian University"}, {"city": "Hobart", "location": "Australia", "ranking": "294", "name": "University of Tasmania"}, {"city": "Moscow", "location": "Russia", "ranking": "295", "name": "RUDN University"}, {"city": "Melbourne", "location": "Australia", "ranking": "296", "name": "Swinburne University of Technology"}, {"city": "Al Ain", "location": "United Arab Emirates", "ranking": "297", "name": "United Arab Emirates University"}, {"city": "Miami", "location": "United States", "ranking": "298", "name": "University of Miami"}, {"city": "Tartu", "location": "Estonia", "ranking": "299", "name": "University of Tartu"}, {"city": "Nathan", "location": "Australia", "ranking": "300", "name": "Griffith University"}, {"city": "Paris", "location": "France", "ranking": "301", "name": "Universit\u00e9 Paris 1 Panth\u00e9on-Sorbonne"}, {"city": "Xi'an", "location": "China (Mainland)", "ranking": "302", "name": "Xi\u2019an Jiaotong University"}, {"city": "Cork", "location": "Ireland", "ranking": "303", "name": "University College Cork"}, {"city": "", "location": "Macau SAR", "ranking": "304", "name": "University of Macau"}, {"city": "Guildford", "location": "United Kingdom", "ranking": "305", "name": "University of Surrey"}, {"city": "Wuhan", "location": "China (Mainland)", "ranking": "306", "name": "Huazhong University of Science and Technology"}, {"city": "Tianjin", "location": "China (Mainland)", "ranking": "307", "name": "Tianjin University"}, {"city": "Halifax", "location": "Canada", "ranking": "308", "name": "Dalhousie University"}, {"city": "Moscow", "location": "Russia", "ranking": "309", "name": "HSE University"}, {"city": "Moscow", "location": "Russia", "ranking": "310", "name": "National Research Nuclear University MEPhI (Moscow Engineering Physics Institute)"}, {"city": "Innsbruck", "location": "Austria", "ranking": "311", "name": "Universit\u00e4t Innsbruck"}, {"city": "Raleigh", "location": "United States", "ranking": "312", "name": "North Carolina State University"}, {"city": "Medford", "location": "United States", "ranking": "313", "name": "Tufts University"}, {"city": "Tsukuba City", "location": "Japan", "ranking": "315", "name": "University of Tsukuba"}, {"city": "Melbourne", "location": "Australia", "ranking": "316", "name": "La Trobe University"}, {"city": "Boulder", "location": "United States", "ranking": "317", "name": "University of Colorado Boulder"}, {"city": "Chicago", "location": "United States", "ranking": "318", "name": "University of Illinois at Chicago (UIC)"}, {"city": "Grenoble", "location": "France", "ranking": "319", "name": "Universit\u00e9 Grenoble Alpes"}, {"city": "Link\u00f6ping", "location": "Sweden", "ranking": "320", "name": "Link\u00f6ping University"}, {"city": "Madrid", "location": "Spain", "ranking": "321", "name": "Universidad Carlos III de Madrid (UC3M)"}, {"city": "Kazan", "location": "Russia", "ranking": "322", "name": "Kazan (Volga region) Federal University"}, {"city": "Buenos Aires", "location": "Argentina", "ranking": "323", "name": "Pontificia Universidad Cat\u00f3lica Argentina"}, {"city": "Milan", "location": "Italy", "ranking": "324", "name": "University of Milan"}, {"city": "Turin", "location": "Italy", "ranking": "325", "name": "Politecnico di Torino"}, {"city": "Glasgow", "location": "United Kingdom", "ranking": "326", "name": "University of Strathclyde"}, {"city": "Taipei City", "location": "Taiwan", "ranking": "327", "name": "National Taiwan University of Science and Technology (Taiwan Tech)"}, {"city": "Frankfurt", "location": "Germany", "ranking": "328", "name": "Goethe-University Frankfurt am Main"}, {"city": "Burnaby", "location": "Canada", "ranking": "329", "name": "Simon Fraser University"}, {"city": "Aalborg", "location": "Denmark", "ranking": "330", "name": "Aalborg University"}, {"city": "Hamilton ", "location": "New Zealand", "ranking": "331", "name": "University of Waikato"}, {"city": "Taipei City", "location": "Taiwan", "ranking": "332", "name": "National Taiwan Normal University"}, {"city": "Rio de Janeiro", "location": "Brazil", "ranking": "333", "name": "Universidade Federal do Rio de Janeiro"}, {"city": "Islamabad", "location": "Pakistan", "ranking": "334", "name": "National University of Sciences And Technology (NUST) Islamabad"}, {"city": "Cologne", "location": "Germany", "ranking": "335", "name": "University of Cologne"}, {"city": "Lisbon", "location": "Portugal", "ranking": "336", "name": "University of Lisbon"}, {"city": "Ekaterinburg", "location": "Russia", "ranking": "337", "name": "Ural Federal University - UrFU"}, {"city": "Higashihiroshima City", "location": "Japan", "ranking": "338", "name": "Hiroshima University"}, {"city": "Bloomington", "location": "United States", "ranking": "339", "name": "Indiana University Bloomington"}, {"city": "Erlangen", "location": "Germany", "ranking": "340", "name": "Friedrich-Alexander-Universit\u00e4t Erlangen-N\u00fcrnberg"}, {"city": "Bandar Seri Begawan", "location": "Brunei", "ranking": "341", "name": "Universiti Teknologi Brunei"}, {"city": "Norwich", "location": "United Kingdom", "ranking": "342", "name": "University of East Anglia (UEA)"}, {"city": "London", "location": "United Kingdom", "ranking": "343", "name": "Birkbeck, University of London"}, {"city": "Barcelona", "location": "Spain", "ranking": "344", "name": "Universitat Polit\u00e8cnica de Catalunya \u00b7 BarcelonaTech (UPC)"}, {"city": "Moscow", "location": "Russia", "ranking": "345", "name": "MGIMO University"}, {"city": "Seoul", "location": "South Korea", "ranking": "346", "name": "Ewha Womans University"}, {"city": "Segovia", "location": "Spain", "ranking": "347", "name": "IE University"}, {"city": "Jyv\u00e4skyl\u00e4", "location": "Finland", "ranking": "348", "name": "University of Jyv\u00e4skyl\u00e4"}, {"city": "Odense", "location": "Denmark", "ranking": "349", "name": "University of Southern Denmark (SDU)"}, {"city": "Linz", "location": "Austria", "ranking": "350", "name": "Johannes Kepler University Linz"}, {"city": "Storrs", "location": "United States", "ranking": "351", "name": "University of Connecticut"}, {"city": "Trondheim", "location": "Norway", "ranking": "352", "name": "Norwegian University of Science And Technology"}, {"city": "Jena", "location": "Germany", "ranking": "353", "name": "Universit\u00e4t Jena"}, {"city": "Dundee", "location": "United Kingdom", "ranking": "354", "name": "University of Dundee"}, {"city": "Beijing", "location": "China (Mainland)", "ranking": "355", "name": "Beijing Institute of Technology"}, {"city": "London", "location": "United Kingdom", "ranking": "356", "name": "City, University of London"}, {"city": "Stuttgart", "location": "Germany", "ranking": "357", "name": "Universit\u00e4t Stuttgart"}, {"city": "Prague", "location": "Czechia", "ranking": "358", "name": "University of Chemistry and Technology, Prague"}, {"city": "St. Petersburg", "location": "Russia", "ranking": "359", "name": "ITMO University"}, {"city": "Victoria", "location": "Canada", "ranking": "360", "name": "University of Victoria (UVic)"}, {"city": "Seri Iskandar", "location": "Malaysia", "ranking": "361", "name": "Universiti Teknologi PETRONAS (UTP)"}, {"city": "Washington D.C.", "location": "United States", "ranking": "362", "name": "George Washington University"}, {"city": "Kobe City", "location": "Japan", "ranking": "363", "name": "Kobe University"}, {"city": "Lima", "location": "Peru", "ranking": "364", "name": "Pontificia Universidad Catolica del Peru"}, {"city": "Islamabad", "location": "Pakistan", "ranking": "365", "name": "Quaid-i-Azam University"}, {"city": "Adelaide", "location": "Australia", "ranking": "366", "name": "University of South Australia"}, {"city": "Blacksburg", "location": "United States", "ranking": "367", "name": "Virginia Polytechnic Institute and State University"}, {"city": "Lincoln", "location": "New Zealand", "ranking": "368", "name": "Lincoln University"}, {"city": "Surabaya", "location": "Indonesia", "ranking": "369", "name": "Airlangga University"}, {"city": "Sharjah", "location": "United Arab Emirates", "ranking": "370", "name": "American University of Sharjah"}, {"city": "Roorkee", "location": "India", "ranking": "371", "name": "Indian Institute of Technology Roorkee (IITR)"}, {"city": "Ume\u00e5", "location": "Sweden", "ranking": "372", "name": "Umea University"}, {"city": "Lisbon", "location": "Portugal", "ranking": "373", "name": "Universidade Nova de Lisboa"}, {"city": "Lawrence", "location": "United States", "ranking": "374", "name": "University of Kansas"}, {"city": "Ulm", "location": "Germany", "ranking": "375", "name": "Ulm University"}, {"city": "Santa Cruz", "location": "United States", "ranking": "376", "name": "University of California, Santa Cruz"}, {"city": "Canterbury", "location": "United Kingdom", "ranking": "377", "name": "University of Kent"}, {"city": "Prague", "location": "Czechia", "ranking": "378", "name": "Czech Technical University in Prague"}, {"city": "Tianjin", "location": "China (Mainland)", "ranking": "379", "name": "Nankai University"}, {"city": "Tehran", "location": "Iran", "ranking": "380", "name": "Sharif University of Technology"}, {"city": "Honolulu", "location": "United States", "ranking": "381", "name": "University of Hawai\u02bbi at M\u0101noa"}, {"city": "St. Petersburg", "location": "Russia", "ranking": "382", "name": "Peter the Great St. Petersburg Polytechnic University"}, {"city": "Bogot\u00e1", "location": "Colombia", "ranking": "383", "name": "Pontificia Universidad Javeriana"}, {"city": "Guwahati", "location": "India", "ranking": "384", "name": "Indian Institute of Technology Guwahati (IITG)"}, {"city": "Muscat", "location": "Oman", "ranking": "385", "name": "Sultan Qaboos University"}, {"city": "Taipei", "location": "Taiwan", "ranking": "386", "name": "Taipei Medical University (TMU)"}, {"city": "Munster", "location": "Germany", "ranking": "387", "name": "University of M\u00fcnster"}, {"city": "Lappeenranta", "location": "Finland", "ranking": "388", "name": "Lappeenranta-Lahti University of Technology LUT"}, {"city": "Boston", "location": "United States", "ranking": "389", "name": "Northeastern University"}, {"city": "Islamabad", "location": "Pakistan", "ranking": "390", "name": "Pakistan Institute of Engineering and Applied Sciences (PIEAS)"}, {"city": "Buenos Aires", "location": "Argentina", "ranking": "391", "name": "Universidad de Palermo (UP)"}, {"city": "Seoul", "location": "South Korea", "ranking": "392", "name": "Chung-Ang University (CAU)"}, {"city": "Tokyo", "location": "Japan", "ranking": "393", "name": "Tokyo Medical and Dental University (TMDU)"}, {"city": "Oulu", "location": "Finland", "ranking": "394", "name": "University of Oulu"}, {"city": "Salt Lake City", "location": "United States", "ranking": "395", "name": "University of Utah"}, {"city": "Indore", "location": "India", "ranking": "396", "name": "Indian Institute of Technology Indore"}, {"city": "Jinan", "location": "China (Mainland)", "ranking": "397", "name": "Shandong University"}, {"city": "Tomsk", "location": "Russia", "ranking": "398", "name": "National Research Tomsk Polytechnic University"}, {"city": "Tilburg", "location": "Netherlands", "ranking": "399", "name": "Tilburg University"}, {"city": "Val\u00e8ncia", "location": "Spain", "ranking": "400", "name": "Universitat Politecnica de Valencia"}, {"city": "Vilnius", "location": "Lithuania", "ranking": "401", "name": "Vilnius University"}, {"city": "Mexico City", "location": "Mexico", "ranking": "402", "name": "El Colegio de M\u00e9xico, A.C."}, {"city": "Egham", "location": "United Kingdom", "ranking": "403", "name": "Royal Holloway University of London"}, {"city": "Pisa", "location": "Italy", "ranking": "404", "name": "University of Pisa"}, {"city": "Almaty", "location": "Kazakhstan", "ranking": "405", "name": "Satbayev University"}, {"city": "Chengdu", "location": "China (Mainland)", "ranking": "406", "name": "Sichuan University"}, {"city": "Guangzhou", "location": "China (Mainland)", "ranking": "407", "name": "South China University of Technology"}, {"city": "Fort Collins", "location": "United States", "ranking": "408", "name": "Colorado State University"}, {"city": "Haifa", "location": "Israel", "ranking": "409", "name": "Technion - Israel Institute of Technology"}, {"city": "Seoul", "location": "South Korea", "ranking": "410", "name": "HUFS - Hankuk (Korea) University of Foreign Studies"}, {"city": "W\u00fcrzburg", "location": "Germany", "ranking": "411", "name": "Julius-Maximilians-Universit\u00e4t W\u00fcrzburg"}, {"city": "London", "location": "United Kingdom", "ranking": "412", "name": "Brunel University London"}, {"city": "Johannesburg", "location": "South Africa", "ranking": "413", "name": "University of Johannesburg"}, {"city": "Quezon City", "location": "Philippines", "ranking": "414", "name": "University of the Philippines"}, {"city": "Tampere", "location": "Finland", "ranking": "415", "name": "Tampere University"}, {"city": "Bochum", "location": "Germany", "ranking": "416", "name": "Ruhr-Universit\u00e4t Bochum"}, {"city": "Stony Brook", "location": "United States", "ranking": "417", "name": "Stony Brook University, State University of New York"}, {"city": "Cairo", "location": "Egypt", "ranking": "418", "name": "The American University in Cairo"}, {"city": "Naples", "location": "Italy", "ranking": "419", "name": "University of Naples - Federico II"}, {"city": "Mainz", "location": "Germany", "ranking": "420", "name": "Johannes Gutenberg Universit\u00e4t Mainz"}, {"city": "Leipzig", "location": "Germany", "ranking": "421", "name": "Universit\u00e4t  Leipzig"}, {"city": "Athens", "location": "Greece", "ranking": "422", "name": "National Technical University of Athens"}, {"city": "Shanghai", "location": "China (Mainland)", "ranking": "423", "name": "Shanghai University"}, {"city": "Xiamen", "location": "China (Mainland)", "ranking": "424", "name": "Xiamen University"}, {"city": "Adelaide", "location": "Australia", "ranking": "425", "name": "Flinders University"}, {"city": "Swansea", "location": "United Kingdom", "ranking": "426", "name": "Swansea University"}, {"city": "Buffalo", "location": "United States", "ranking": "427", "name": "University at Buffalo SUNY"}, {"city": "Kaohsiung City", "location": "Taiwan", "ranking": "428", "name": "National Sun Yat-sen University"}, {"city": "Denver", "location": "United States", "ranking": "429", "name": "University of Colorado, Denver"}, {"city": "Beijing", "location": "China (Mainland)", "ranking": "430", "name": "University of Science and Technology Beijing"}, {"city": "Johannesburg", "location": "South Africa", "ranking": "431", "name": "University of Witwatersrand"}, {"city": "Pilar", "location": "Argentina", "ranking": "432", "name": "Universidad Austral"}, {"city": "Qu\u00e9bec", "location": "Canada", "ranking": "433", "name": "Universit\u00e9 Laval"}, {"city": "Vladivostok", "location": "Russia", "ranking": "434", "name": "Far Eastern Federal University"}, {"city": "Strasbourg", "location": "France", "ranking": "435", "name": "Universit\u00e9 de Strasbourg"}, {"city": "Taipei City", "location": "Taiwan", "ranking": "436", "name": "National Taipei University of Technology"}, {"city": "Milan", "location": "Italy", "ranking": "437", "name": "Universit\u00e0 Vita-Salute San Raffaele"}, {"city": "Oxford", "location": "United Kingdom", "ranking": "438", "name": "Oxford Brookes University"}, {"city": "Coimbra", "location": "Portugal", "ranking": "439", "name": "University of Coimbra"}, {"city": "Winston-Salem", "location": "United States", "ranking": "440", "name": "Wake Forest University"}, {"city": "S\u00e3o Paulo", "location": "Brazil", "ranking": "441", "name": "Universidade Federal de S\u00e3o Paulo"}, {"city": "Saarbr\u00fccken", "location": "Germany", "ranking": "442", "name": "Universit\u00e4t des Saarlandes"}, {"city": "Tehran", "location": "Iran", "ranking": "443", "name": "Amirkabir University of Technology"}, {"city": "Shymkent", "location": "Kazakhstan", "ranking": "444", "name": "Auezov South Kazakhstan University (SKU)"}, {"city": "Beijing", "location": "China (Mainland)", "ranking": "445", "name": "Beihang University (former BUAA)"}, {"city": "Chicago", "location": "United States", "ranking": "446", "name": "Illinois Institute of Technology"}, {"city": "London", "location": "United Kingdom", "ranking": "447", "name": "SOAS University of London"}, {"city": "Pullman", "location": "United States", "ranking": "448", "name": "Washington State University"}, {"city": "Bogor", "location": "Indonesia", "ranking": "449", "name": "IPB University (aka Bogor Agricultural University)"}, {"city": "Diepenbeek", "location": "Belgium", "ranking": "450", "name": "Hasselt University"}, {"city": "Makkah", "location": "Saudi Arabia", "ranking": "451", "name": "Umm Al-Qura University"}, {"city": "Montevideo", "location": "Uruguay", "ranking": "452", "name": "Universidad de Montevideo (UM)"}, {"city": "Riverside", "location": "United States", "ranking": "453", "name": "University of California, Riverside"}, {"city": "Stellenbosch", "location": "South Africa", "ranking": "454", "name": "Stellenbosch University"}, {"city": "Troms\u00f8", "location": "Norway", "ranking": "455", "name": "University of Troms\u00f8 The Arctic University of Norway"}, {"city": "Toronto", "location": "Canada", "ranking": "456", "name": "York University"}, {"city": "Lyon", "location": "France", "ranking": "457", "name": "Institut National des Sciences Appliqu\u00e9es de Lyon (INSA)"}, {"city": "Seoul", "location": "South Korea", "ranking": "458", "name": "Sogang University"}, {"city": "Trento", "location": "Italy", "ranking": "459", "name": "University of Trento"}, {"city": "Florence", "location": "Italy", "ranking": "460", "name": "University of Florence"}, {"city": "Townsville", "location": "Australia", "ranking": "461", "name": "James Cook University"}, {"city": "Troy", "location": "United States", "ranking": "462", "name": "Rensselaer Polytechnic Institute"}, {"city": "Nanjing", "location": "China (Mainland)", "ranking": "463", "name": "Southeast University"}, {"city": "Buenos Aires", "location": "Argentina", "ranking": "464", "name": "Universidad de Belgrano"}, {"city": "Colchester", "location": "United Kingdom", "ranking": "465", "name": "Essex, University of"}, {"city": "Santiago", "location": "Chile", "ranking": "466", "name": "Universidad de Santiago de Chile (USACH)"}, {"city": "Moscow", "location": "Russia", "ranking": "467", "name": "The National University of Science and Technology MISIS"}, {"city": "Havana", "location": "Cuba", "ranking": "468", "name": "Universidad de La Habana"}, {"city": "Fairbanks", "location": "United States", "ranking": "469", "name": "University of Alaska Fairbanks"}, {"city": "Iowa City", "location": "United States", "ranking": "470", "name": "University of Iowa"}, {"city": "Dublin", "location": "Ireland", "ranking": "471", "name": "Dublin City University"}, {"city": "New Orleans", "location": "United States", "ranking": "472", "name": "Tulane University"}, {"city": "Nicosia", "location": "Cyprus", "ranking": "473", "name": "University of Cyprus (UCY)"}, {"city": "Saskatoon", "location": "Canada", "ranking": "474", "name": "University of Saskatchewan"}, {"city": "Taoyuan City", "location": "Taiwan", "ranking": "475", "name": "Chang Gung University"}, {"city": "Turin", "location": "Italy", "ranking": "476", "name": "University of Turin"}, {"city": "Dammam", "location": "Saudi Arabia", "ranking": "477", "name": "Imam Abdulrahman Bin Faisal University (IAU)"}, {"city": "Istanbul", "location": "Turkey", "ranking": "478", "name": "Ko\u00e7 University"}, {"city": "Halle", "location": "Germany", "ranking": "479", "name": "Martin-Luther-Universit\u00e4t Halle-Wittenberg"}, {"city": "Sao Paulo", "location": "Brazil", "ranking": "480", "name": "UNESP"}, {"city": "Gold Coast", "location": "Australia", "ranking": "481", "name": "Bond University"}, {"city": "Seoul", "location": "South Korea", "ranking": "482", "name": "Dongguk University"}, {"city": "Ames", "location": "United States", "ranking": "483", "name": "Iowa State University"}, {"city": "Almaty", "location": "Kazakhstan", "ranking": "484", "name": "Kazakh National Agrarian University KazNAU"}, {"city": "Sintok", "location": "Malaysia", "ranking": "485", "name": "Universiti Utara Malaysia (UUM)"}, {"city": "Auckland", "location": "New Zealand", "ranking": "486", "name": "Auckland University of Technology (AUT)"}, {"city": "Klagenfurt", "location": "Austria", "ranking": "487", "name": "University of Klagenfurt"}, {"city": "Suwon", "location": "South Korea", "ranking": "488", "name": "Ajou University"}, {"city": "Madrid", "location": "Spain", "ranking": "489", "name": "Universidad Polit\u00e9cnica de Madrid (UPM)"}, {"city": "Marseille", "location": "France", "ranking": "490", "name": "Aix-Marseille University"}, {"city": "Be'er Sheva", "location": "Israel", "ranking": "491", "name": "Ben-Gurion University of The Negev"}, {"city": "Chiba City", "location": "Japan", "ranking": "492", "name": "Chiba University"}, {"city": "Giessen", "location": "Germany", "ranking": "493", "name": "Justus-Liebig-University Giessen"}, {"city": "Gyeonggi", "location": "South Korea", "ranking": "494", "name": "The Catholic University of Korea"}, {"city": "Montevideo", "location": "Uruguay", "ranking": "495", "name": "Universidad ORT Uruguay"}, {"city": "Granada", "location": "Spain", "ranking": "496", "name": "University of Granada"}, {"city": "Waltham", "location": "United States", "ranking": "497", "name": "Brandeis University"}, {"city": "Changchun", "location": "China (Mainland)", "ranking": "498", "name": "Jilin University"}, {"city": "Changsha Shi", "location": "China (Mainland)", "ranking": "499", "name": "Central South University"}, {"city": "Rome", "location": "Italy", "ranking": "500", "name": "University of Rome \"Tor Vergata\""}, {"city": "Milperra", "location": "Australia", "ranking": "501", "name": "Western Sydney University"}, {"city": "Ramat Gan", "location": "Israel", "ranking": "502", "name": "Bar-Ilan University"}, {"city": "Golden", "location": "United States", "ranking": "503", "name": "Colorado School of Mines"}, {"city": "Daegu", "location": "South Korea", "ranking": "504", "name": "Kyungpook National University"}, {"city": "Ankara", "location": "Turkey", "ranking": "505", "name": "Middle East Technical University"}, {"city": "Rolla", "location": "United States", "ranking": "506", "name": "Missouri University of Science and Technology"}, {"city": "Philadelphia", "location": "United States", "ranking": "507", "name": "Swarthmore College"}, {"city": "Aveiro", "location": "Portugal", "ranking": "508", "name": "University of Aveiro"}, {"city": "St. Gallen", "location": "Switzerland", "ranking": "509", "name": "University of St.Gallen (HSG)"}, {"city": "Stirling", "location": "United Kingdom", "ranking": "510", "name": "University of Stirling"}, {"city": "Tehran", "location": "Iran", "ranking": "511", "name": "University of Tehran"}, {"city": "Montpellier", "location": "France", "ranking": "512", "name": "Universit\u00e9 de Montpellier"}, {"city": "Yokohama City", "location": "Japan", "ranking": "513", "name": "Yokohama City University"}, {"city": "Almaty", "location": "Kazakhstan", "ranking": "514", "name": "Abai Kazakh National Pedagogical University"}, {"city": "Tallahassee", "location": "United States", "ranking": "515", "name": "Florida State University"}, {"city": "London", "location": "United Kingdom", "ranking": "516", "name": "Goldsmiths, University of London"}, {"city": "Alcal\u00e1 de Henares", "location": "Spain", "ranking": "517", "name": "Universidad de Alcal\u00e1"}, {"city": "San Jose", "location": "Costa Rica", "ranking": "518", "name": "Universidad de Costa Rica"}, {"city": "Bayreuth", "location": "Germany", "ranking": "519", "name": "University of Bayreuth"}, {"city": "Bruce", "location": "Australia", "ranking": "520", "name": "University of Canberra"}, {"city": "Columbia", "location": "United States", "ranking": "521", "name": "University of Missouri, Columbia"}, {"city": "Milan", "location": "Italy", "ranking": "522", "name": "Universit\u00e0 Cattolica del Sacro Cuore"}, {"city": "Barnaul", "location": "Russia", "ranking": "523", "name": "Altai State University"}, {"city": "Beijing", "location": "China (Mainland)", "ranking": "524", "name": "Beijing University of Chemical Technology"}, {"city": "Kiel", "location": "Germany", "ranking": "525", "name": "Christian-Albrechts-University zu Kiel"}, {"city": "Pozna\u0144", "location": "Poland", "ranking": "526", "name": "Poznan University of Life Sciences"}, {"city": "New York", "location": "United States", "ranking": "527", "name": "The New School"}, {"city": "Talence", "location": "France", "ranking": "528", "name": "University of Bordeaux"}, {"city": "New Delhi", "location": "India", "ranking": "529", "name": "University of Delhi"}, {"city": "Richardson", "location": "United States", "ranking": "530", "name": "University of Texas Dallas"}, {"city": "Li\u00e8ge", "location": "Belgium", "ranking": "531", "name": "Universit\u00e9 de Li\u00e8ge"}, {"city": "Warsaw", "location": "Poland", "ranking": "532", "name": "Warsaw University of Technology"}, {"city": "Kunitachi City", "location": "Japan", "ranking": "533", "name": "Hitotsubashi University"}, {"city": "Incheon", "location": "South Korea", "ranking": "534", "name": "Inha University"}, {"city": "Tehran", "location": "Iran", "ranking": "535", "name": "Iran University of Science and Technology"}, {"city": "Istanbul", "location": "Turkey", "ranking": "536", "name": "Sabanci University"}, {"city": "Beirut", "location": "Lebanon", "ranking": "537", "name": "Saint Joseph University of Beirut (USJ)"}, {"city": "Santa Clara", "location": "Cuba", "ranking": "538", "name": "Universidad Central \"Marta Abreu\" de Las Villas"}, {"city": "Beirut", "location": "Lebanon", "ranking": "539", "name": "University of Balamand"}, {"city": "Limerick", "location": "Ireland", "ranking": "540", "name": "University of Limerick"}, {"city": "", "location": "United Arab Emirates", "ranking": "541", "name": "Canadian University Dubai"}, {"city": "Beijing", "location": "China (Mainland)", "ranking": "542", "name": "China University of Petroleum, Beijing"}, {"city": "Shanghai", "location": "China (Mainland)", "ranking": "543", "name": "East China Normal University"}, {"city": "Pune", "location": "India", "ranking": "544", "name": "Savitribai Phule Pune University"}, {"city": "Rostov-on-Don", "location": "Russia", "ranking": "545", "name": "Southern Federal University"}, {"city": "La Plata", "location": "Argentina", "ranking": "546", "name": "Universidad Nacional de La Plata (UNLP)"}, {"city": "Mexico City", "location": "Mexico", "ranking": "547", "name": "Universidad Panamericana (UP)"}, {"city": "Chennai", "location": "India", "ranking": "548", "name": "University of Madras"}, {"city": "Konstanz", "location": "Germany", "ranking": "549", "name": "Universit\u00e4t Konstanz"}, {"city": "Mannheim", "location": "Germany", "ranking": "550", "name": "Universit\u00e4t Mannheim"}, {"city": "Kharkiv", "location": "Ukraine", "ranking": "551", "name": "V. N. Karazin Kharkiv National University"}, {"city": "Chennai", "location": "India", "ranking": "552", "name": "Anna University"}, {"city": "Giza", "location": "Egypt", "ranking": "553", "name": "Cairo University"}, {"city": "Montreal", "location": "Canada", "ranking": "554", "name": "Concordia University"}, {"city": "Jeonju", "location": "South Korea", "ranking": "555", "name": "Jeonbuk National University"}, {"city": "Brno", "location": "Czechia", "ranking": "556", "name": "Masaryk University"}, {"city": "Saratov", "location": "Russia", "ranking": "557", "name": "National Research Saratov State University"}, {"city": "Xi'an", "location": "China (Mainland)", "ranking": "558", "name": "Northwestern Polytechnical University"}, {"city": "Seoul", "location": "South Korea", "ranking": "559", "name": "Sejong University"}, {"city": "Zaragoza", "location": "Spain", "ranking": "560", "name": "Universidad de Zaragoza"}, {"city": "Kuopio", "location": "Finland", "ranking": "561", "name": "University of Eastern Finland"}, {"city": "Szeged", "location": "Hungary", "ranking": "562", "name": "University of Szeged"}, {"city": "Provo", "location": "Kazakhstan", "ranking": "563", "name": "Almaty Technological University"}, {"city": "Al-Ekir", "location": "Bahrain", "ranking": "564", "name": "Applied Science University - Bahrain"}, {"city": "Birmingham", "location": "United Kingdom", "ranking": "565", "name": "Aston University"}, {"city": "Ankara", "location": "Turkey", "ranking": "566", "name": "Bilkent University"}, {"city": "Chestnut Hill", "location": "United States", "ranking": "567", "name": "Boston College"}, {"city": "Dalian", "location": "China (Mainland)", "ranking": "568", "name": "Dalian University of Technology"}, {"city": "Murdoch", "location": "Australia", "ranking": "569", "name": "Murdoch University"}, {"city": "Niigata City", "location": "Japan", "ranking": "570", "name": "Niigata University"}, {"city": "Singapore", "location": "Singapore", "ranking": "571", "name": "Singapore Management University"}, {"city": "Sofia", "location": "Bulgaria", "ranking": "572", "name": "Sofia University \"St. Kliment Ohridski\""}, {"city": "Seville", "location": "Spain", "ranking": "573", "name": "Universidad de Sevilla"}, {"city": "Chengdu", "location": "China (Mainland)", "ranking": "574", "name": "University of Electronic Science and Technology of China"}, {"city": "Ulsan", "location": "South Korea", "ranking": "575", "name": "University of Ulsan"}, {"city": "Pavia", "location": "Italy", "ranking": "576", "name": "Universit\u00e0 degli Studi di Pavia"}, {"city": "Chuncheon", "location": "South Korea", "ranking": "577", "name": "Hallym University"}, {"city": "Jounieh", "location": "Lebanon", "ranking": "578", "name": "Holy Spirit University of Kaslik"}, {"city": "Nagasaki City", "location": "Japan", "ranking": "579", "name": "Nagasaki University"}, {"city": "Val\u00e8ncia", "location": "Spain", "ranking": "580", "name": "Universitat de Valencia"}, {"city": "Fribourg", "location": "Switzerland", "ranking": "581", "name": "Universit\u00e9 de Fribourg"}, {"city": "Qu\u00e9bec", "location": "Canada", "ranking": "582", "name": "Universit\u00e9 du Qu\u00e9bec"}, {"city": "Sangareddy", "location": "India", "ranking": "583", "name": "Indian Institute of Technology Hyderabad (IITH)"}, {"city": "", "location": "Macau SAR", "ranking": "584", "name": "Macau University of Science and Technology"}, {"city": "Taoyuan City", "location": "Taiwan", "ranking": "585", "name": "National Central University"}, {"city": "Shenzhen", "location": "China (Mainland)", "ranking": "586", "name": "Shenzhen University"}, {"city": "Newark", "location": "United States", "ranking": "587", "name": "University of Delaware"}, {"city": "Boston", "location": "United States", "ranking": "588", "name": "University of Massachusetts Boston"}, {"city": "Regensburg", "location": "Germany", "ranking": "589", "name": "Universit\u00e4t Regensburg"}, {"city": "Toulouse", "location": "France", "ranking": "590", "name": "Universit\u00e9 Paul Sabatier Toulouse III"}, {"city": "Beijing", "location": "China (Mainland)", "ranking": "591", "name": "China Agricultural University"}, {"city": "Changsha", "location": "China (Mainland)", "ranking": "592", "name": "Hunan University"}, {"city": "Bethlehem", "location": "United States", "ranking": "593", "name": "Lehigh University"}, {"city": "Bari", "location": "Italy", "ranking": "594", "name": "Politecnico di Bari"}, {"city": "Seoul", "location": "South Korea", "ranking": "595", "name": "Sungshin Women's University"}, {"city": "Heraklion", "location": "Greece", "ranking": "596", "name": "University of Crete"}, {"city": "Guelph", "location": "Canada", "ranking": "597", "name": "University of Guelph"}, {"city": "Amman", "location": "Jordan", "ranking": "598", "name": "University of Jordan"}, {"city": "Braga", "location": "Portugal", "ranking": "599", "name": "University of Minho"}, {"city": "Pretoria", "location": "South Africa", "ranking": "600", "name": "University of Pretoria"}, {"city": "Turku", "location": "Finland", "ranking": "601", "name": "Abo Akademi University"}, {"city": "Al Ain,", "location": "United Arab Emirates", "ranking": "602", "name": "Al Ain University"}, {"city": "Bangor", "location": "United Kingdom", "ranking": "603", "name": "Bangor University"}, {"city": "Ottawa", "location": "Canada", "ranking": "604", "name": "Carleton University"}, {"city": "Chiang Mai", "location": "Thailand", "ranking": "605", "name": "Chiang Mai University"}, {"city": "Shanghai", "location": "China (Mainland)", "ranking": "606", "name": "East China University of Science and Technology"}, {"city": "Joondalup", "location": "Australia", "ranking": "607", "name": "Edith Cowan University"}, {"city": "Gifu City", "location": "Japan", "ranking": "608", "name": "Gifu University"}, {"city": "Kaliningrad", "location": "Russia", "ranking": "609", "name": "Immanuel Kant Baltic Federal University"}, {"city": "Tbilisi", "location": "Georgia", "ranking": "610", "name": "Ivane Javakhishvili Tbilisi State University"}, {"city": "Maslak-Istanbul", "location": "Turkey", "ranking": "611", "name": "Istanbul Technical University"}, {"city": "New Delhi", "location": "India", "ranking": "611", "name": "Jawaharlal Nehru University"}, {"city": "Kanazawa", "location": "Japan", "ranking": "612", "name": "Kanazawa University"}, {"city": "Kingston upon Thames", "location": "United Kingdom", "ranking": "613", "name": "Kingston University, London"}, {"city": "Lahore", "location": "Pakistan", "ranking": "614", "name": "Lahore University of Management Sciences (LUMS)"}, {"city": "Byblos", "location": "Lebanon", "ranking": "615", "name": "Lebanese American University"}, {"city": "Beirut", "location": "Lebanon", "ranking": "616", "name": "Lebanese University"}, {"city": "Hanover", "location": "Germany", "ranking": "617", "name": "Leibniz University Hannover"}, {"city": "Hong Kong", "location": "Hong Kong SAR", "ranking": "618", "name": "Lingnan University, Hong Kong"}, {"city": "Shah Alam", "location": "Malaysia", "ranking": "619", "name": "Management and Science University"}, {"city": "Nanjing", "location": "China (Mainland)", "ranking": "620", "name": "Nanjing University of Science and Technology"}, {"city": "Taipei City", "location": "Taiwan", "ranking": "621", "name": "National Chengchi University"}, {"city": "Athens", "location": "Greece", "ranking": "622", "name": "National and Kapodistrian University of Athens"}, {"city": "Okayama City", "location": "Japan", "ranking": "623", "name": "Okayama University"}, {"city": "Corvallis", "location": "United States", "ranking": "624", "name": "Oregon State University"}, {"city": "Osaka City", "location": "Japan", "ranking": "625", "name": "Osaka City University"}, {"city": "Rio de Janeiro", "location": "Brazil", "ranking": "626", "name": "Pontif\u00edcia Universidade Cat\u00f3lica do Rio de Janeiro"}, {"city": "Busan", "location": "South Korea", "ranking": "627", "name": "Pusan National University"}, {"city": "Beijing", "location": "China (Mainland)", "ranking": "628", "name": "Renmin (People's) University of China"}, {"city": "Samara", "location": "Russia", "ranking": "629", "name": "Samara National Research University (Samara University)"}, {"city": "St. Louis", "location": "United States", "ranking": "630", "name": "Saint Louis University"}, {"city": "Petaling Jaya", "location": "Malaysia", "ranking": "631", "name": "Sunway University"}, {"city": "Braunschweig", "location": "Germany", "ranking": "632", "name": "Technische Universit\u00e4t Braunschweig"}, {"city": "Athens", "location": "United States", "ranking": "633", "name": "The University of Georgia"}, {"city": "Knoxville", "location": "United States", "ranking": "634", "name": "The University of Tennessee, Knoxville"}, {"city": "Coleraine", "location": "United Kingdom", "ranking": "635", "name": "Ulster University"}, {"city": "Huixquilucan", "location": "Mexico", "ranking": "636", "name": "Universidad An\u00e1huac M\u00e9xico"}, {"city": "Medell\u00edn", "location": "Colombia", "ranking": "637", "name": "Universidad Pontificia Bolivariana"}, {"city": "Madrid", "location": "Spain", "ranking": "638", "name": "Universidad Pontificia Comillas"}, {"city": "Concepci\u00f3n", "location": "Chile", "ranking": "639", "name": "Universidad de Concepci\u00f3n"}, {"city": "Paris", "location": "France", "ranking": "640", "name": "Universite Paris-Pantheon-Assas"}, {"city": "Ljubljana", "location": "Slovenia", "ranking": "641", "name": "University of Ljubljana"}, {"city": "Milan", "location": "Italy", "ranking": "642", "name": "University of Milano-Bicocca"}, {"city": "Salamanca", "location": "Spain", "ranking": "643", "name": "University of Salamanca"}, {"city": "Sharjah", "location": "United Arab Emirates", "ranking": "644", "name": "University of Sharjah"}, {"city": "Tampa", "location": "United States", "ranking": "645", "name": "University of South Florida"}, {"city": "Bremen", "location": "Germany", "ranking": "646", "name": "Universit\u00e4t Bremen"}, {"city": "Potsdam", "location": "Germany", "ranking": "647", "name": "Universit\u00e4t Potsdam"}, {"city": "Rostock", "location": "Germany", "ranking": "648", "name": "Universit\u00e4t Rostock"}, {"city": "Villeurbanne", "location": "France", "ranking": "649", "name": "Universit\u00e9 Claude Bernard Lyon 1"}, {"city": "Detroit", "location": "United States", "ranking": "650", "name": "Wayne State University"}, {"city": "Middletown", "location": "United States", "ranking": "651", "name": "Wesleyan University"}, {"city": "Aberystwyth", "location": "United Kingdom", "ranking": "652", "name": "Aberystwyth University"}, {"city": "Abu Dhabi", "location": "United Arab Emirates", "ranking": "653", "name": "Abu Dhabi University"}, {"city": "Manama", "location": "Bahrain", "ranking": "654", "name": "Ahlia University"}, {"city": "Ajman", "location": "United Arab Emirates", "ranking": "655", "name": "Ajman University"}, {"city": "Riyadh", "location": "Saudi Arabia", "ranking": "656", "name": "Alfaisal University"}, {"city": "Dubai", "location": "United Arab Emirates", "ranking": "657", "name": "American University in Dubai"}, {"city": "Thessaloniki", "location": "Greece", "ranking": "658", "name": "Aristotle University of Thessaloniki"}, {"city": "Quezon City", "location": "Philippines", "ranking": "659", "name": "Ateneo de Manila University"}, {"city": "Norman Gardens", "location": "Australia", "ranking": "660", "name": "Central Queensland University (CQUniversity Australia)"}, {"city": "Wuhan", "location": "China (Mainland)", "ranking": "661", "name": "China University of Geosciences"}, {"city": "Chongqing", "location": "China (Mainland)", "ranking": "662", "name": "Chongqing University"}, {"city": "Bratislava", "location": "Slovakia", "ranking": "663", "name": "Comenius University Bratislava"}, {"city": "Coventry", "location": "United Kingdom", "ranking": "664", "name": "Coventry University"}, {"city": "Philadelphia", "location": "United States", "ranking": "665", "name": "Drexel University"}, {"city": "Maebashi", "location": "Japan", "ranking": "666", "name": "Gunma University"}, {"city": "Varanasi", "location": "India", "ranking": "667", "name": "Indian Institute of Technology BHU Varanasi (IIT BHU Varanasi)"}, {"city": "Kuala Lumpur", "location": "Malaysia", "ranking": "668", "name": "International Islamic University Malaysia (IIUM)"}, {"city": "Karaganda", "location": "Kazakhstan", "ranking": "670", "name": "Karaganda State Technical University"}, {"city": "Graz", "location": "Austria", "ranking": "671", "name": "Karl-Franzens-Universitaet Graz"}, {"city": "Seoul", "location": "South Korea", "ranking": "672", "name": "Konkuk University"}, {"city": "Kumamoto City", "location": "Japan", "ranking": "673", "name": "Kumamoto University"}, {"city": "Taichung City", "location": "Taiwan", "ranking": "674", "name": "National Chung Hsing University"}, {"city": "Kharkiv", "location": "Ukraine", "ranking": "675", "name": "National Technical University  \"Kharkiv Polytechnic Institute\""}, {"city": "Newark", "location": "United States", "ranking": "676", "name": "New Jersey Institute of Technology (NJIT)"}, {"city": "Newcastle upon Tyne", "location": "United Kingdom", "ranking": "677", "name": "Northumbria University at Newcastle"}, {"city": "Sonepat", "location": "India", "ranking": "678", "name": "O.P. Jindal Global University"}, {"city": "Olomouc,", "location": "Czechia", "ranking": "679", "name": "Palack\u00fd University Olomouc"}, {"city": "Moscow", "location": "Russia", "ranking": "680", "name": "Plekhanov Russian University of Economics"}, {"city": "Al Khobar", "location": "Saudi Arabia", "ranking": "681", "name": "Prince Mohammad Bin Fahd university"}, {"city": "Almaty", "location": "Kazakhstan", "ranking": "682", "name": "Asfendiyarov Kazakh National Medical University"}, {"city": "Moscow", "location": "Russia", "ranking": "683", "name": "Sechenov University"}, {"city": "Suzhou", "location": "China (Mainland)", "ranking": "684", "name": "Soochow University"}, {"city": "Kyiv", "location": "Ukraine", "ranking": "685", "name": "Taras Shevchenko National University of Kyiv"}, {"city": "Bangkok", "location": "Thailand", "ranking": "686", "name": "Thammasat University"}, {"city": "Bogot\u00e1", "location": "Colombia", "ranking": "687", "name": "Universidad Externado de Colombia"}, {"city": "Cali", "location": "Colombia", "ranking": "688", "name": "Universidad ICESI"}, {"city": "Tandil", "location": "Argentina", "ranking": "689", "name": "Universidad Nacional del Centro de la Provincia de Buenos Aires (UNICEN)"}, {"city": "San Martin", "location": "Peru", "ranking": "690", "name": "Universidad Peruana Cayetano Heredia (UPCH)"}, {"city": "Medellin", "location": "Colombia", "ranking": "691", "name": "Universidad de Antioquia"}, {"city": "Barcelona", "location": "Spain", "ranking": "692", "name": "Universitat Ramon Llull"}, {"city": "Shah Alam", "location": "Malaysia", "ranking": "693", "name": "Universiti Teknologi MARA - UiTM"}, {"city": "Birmingham", "location": "United States", "ranking": "694", "name": "University of Alabama at Birmingham"}, {"city": "Debrecen", "location": "Hungary", "ranking": "695", "name": "University of Debrecen"}, {"city": "Genoa", "location": "Italy", "ranking": "696", "name": "University of Genoa"}, {"city": "Huddersfield", "location": "United Kingdom", "ranking": "697", "name": "University of Huddersfield"}, {"city": "Hull", "location": "United Kingdom", "ranking": "697", "name": "University of Hull"}, {"city": "Winnipeg", "location": "Canada", "ranking": "698", "name": "University of Manitoba"}, {"city": "Lincoln", "location": "United States", "ranking": "699", "name": "University of Nebraska - Lincoln"}, {"city": "Plymouth", "location": "United Kingdom", "ranking": "700", "name": "University of Plymouth"}, {"city": "Toowoomba", "location": "Australia", "ranking": "701", "name": "University of Southern Queensland"}, {"city": "Washington D.C.", "location": "United States", "ranking": "702", "name": "American University"}, {"city": "Egaila", "location": "Kuwait", "ranking": "703", "name": "American University of the Middle East"}, {"city": "Istanbul", "location": "Turkey", "ranking": "704", "name": "Bogazi\u00e7i \u00dcniversitesi"}, {"city": "Brno", "location": "Czechia", "ranking": "705", "name": "Brno University of Technology"}, {"city": "Casuarina", "location": "Australia", "ranking": "706", "name": "Charles Darwin University"}, {"city": "New York City", "location": "United States", "ranking": "707", "name": "City University of New York"}, {"city": "Budapest", "location": "Hungary", "ranking": "708", "name": "E\u00f6tv\u00f6s Lor\u00e1nd University"}, {"city": "Bolzano", "location": "Italy", "ranking": "709", "name": "Free University of Bozen-Bolzano"}, {"city": "Surabaya", "location": "Indonesia", "ranking": "710", "name": "Institut Teknologi Sepuluh Nopember (ITS Surabaya)"}, {"city": "Kolkata", "location": "India", "ranking": "711", "name": "Jadavpur University"}, {"city": "Guangzhou", "location": "China (Mainland)", "ranking": "712", "name": "Jinan University (China)"}, {"city": "Sakaka", "location": "Saudi Arabia", "ranking": "713", "name": "Jouf University"}, {"city": "Kagoshima City", "location": "Japan", "ranking": "714", "name": "Kagoshima University"}, {"city": "Turkestan", "location": "Kazakhstan", "ranking": "715", "name": "Khoja Akhmet Yassawi International Kazakh-Turkish University"}, {"city": "Abha", "location": "Saudi Arabia", "ranking": "716", "name": "King Khalid University"}, {"city": "Kyiv", "location": "Ukraine", "ranking": "717", "name": "National Technical University of Ukraine \"Igor Sikorsky Kyiv Polytechnic Institute\""}, {"city": "Ko\u0161ice", "location": "Slovakia", "ranking": "718", "name": "Pavol Jozef \u0160af\u00e1rik University in Ko\u0161ice"}, {"city": "Riyadh", "location": "Saudi Arabia", "ranking": "719", "name": "Princess Nourah bint Abdulrahman University"}, {"city": "Kyoto", "location": "Japan", "ranking": "720", "name": "Ritsumeikan University"}, {"city": "Lismore", "location": "Australia", "ranking": "721", "name": "Southern Cross University"}, {"city": "Hoboken", "location": "United States", "ranking": "722", "name": "Stevens Institute of Technology"}, {"city": "Tallinn", "location": "Estonia", "ranking": "723", "name": "Tallinn University of Technology (TalTech)"}, {"city": "Tokushima City", "location": "Japan", "ranking": "724", "name": "Tokushima University"}, {"city": "Tokyo", "location": "Japan", "ranking": "725", "name": "Tokyo Metropolitan University"}, {"city": "Tokyo", "location": "Japan", "ranking": "726", "name": "Tokyo University of Agriculture and Technology"}, {"city": "Montevideo", "location": "Uruguay", "ranking": "727", "name": "Universidad Cat\u00f3lica del Uruguay (UCU)"}, {"city": "Caracas", "location": "Venezuela", "ranking": "728", "name": "Universidad Central de Venezuela"}, {"city": "Mexico City", "location": "Mexico", "ranking": "729", "name": "Universidad Iberoamericana IBERO"}, {"city": "Quito", "location": "Ecuador", "ranking": "730", "name": "Universidad San Francisco de Quito (USFQ)"}, {"city": "Bogot\u00e1", "location": "Colombia", "ranking": "731", "name": "Universidad de La Sabana"}, {"city": "Belo Horizonte", "location": "Brazil", "ranking": "732", "name": "Universidade Federal de Minas Gerais"}, {"city": "Kajang", "location": "Malaysia", "ranking": "733", "name": "Universiti Tenaga Nasional (UNITEN)"}, {"city": "Bradford", "location": "United Kingdom", "ranking": "734", "name": "University of Bradford"}, {"city": "Cincinnati", "location": "United States", "ranking": "735", "name": "University of Cincinnati"}, {"city": "Haifa", "location": "Israel", "ranking": "736", "name": "University of Haifa"}, {"city": "Lexington", "location": "United States", "ranking": "737", "name": "University of Kentucky"}, {"city": "Mons", "location": "Belgium", "ranking": "738", "name": "University of Mons"}, {"city": "Fredericton", "location": "Canada", "ranking": "739", "name": "University of New Brunswick"}, {"city": "Albuquerque", "location": "United States", "ranking": "740", "name": "University of New Mexico"}, {"city": "Norman", "location": "United States", "ranking": "741", "name": "University of Oklahoma"}, {"city": "Eugene", "location": "United States", "ranking": "742", "name": "University of Oregon"}, {"city": "P\u00e9cs", "location": "Hungary", "ranking": "743", "name": "University of Pecs"}, {"city": "Portsmouth", "location": "United Kingdom", "ranking": "744", "name": "University of Portsmouth"}, {"city": "\u010cesk\u00e9 Bud\u011bjovice", "location": "Czechia", "ranking": "745", "name": "University of South Bohemia in \u010cesk\u00e9 Bud\u011bjovice"}, {"city": "Columbia", "location": "United States", "ranking": "746", "name": "University of South Carolina"}, {"city": "Trieste", "location": "Italy", "ranking": "747", "name": "University of Trieste"}, {"city": "Burlington", "location": "United States", "ranking": "748", "name": "University of Vermont"}, {"city": "London", "location": "United Kingdom", "ranking": "749", "name": "University of Westminster"}, {"city": "Leioa", "location": "Spain", "ranking": "750", "name": "University of the Basque Country"}, {"city": "Melbourne", "location": "Australia", "ranking": "751", "name": "Victoria University"}, {"city": "Vilnius", "location": "Lithuania", "ranking": "752", "name": "Vilnius Gediminas Technical University (VILNIUS TECH)"}, {"city": "Richmond", "location": "United States", "ranking": "753", "name": "Virginia Commonwealth University"}, {"city": "Abu Dhabi,", "location": "United Arab Emirates", "ranking": "754", "name": "Zayed University"}, {"city": "Beijing", "location": "China (Mainland)", "ranking": "755", "name": "Beijing University of Technology"}, {"city": "Minsk", "location": "Belarus", "ranking": "756", "name": "Belarusian National Technical University (BNTU)"}, {"city": "Paris", "location": "France", "ranking": "757", "name": "CY Cergy Paris University"}, {"city": "Gwangju", "location": "South Korea", "ranking": "758", "name": "Chonnam National University"}, {"city": "Daejeon", "location": "South Korea", "ranking": "759", "name": "Chungnam National University"}, {"city": "Worcester", "location": "United States", "ranking": "760", "name": "Clark University"}, {"city": "Seoul", "location": "South Korea", "ranking": "761", "name": "Dankook University"}, {"city": "Miami", "location": "United States", "ranking": "762", "name": "Florida International University"}, {"city": "Washington D.C.", "location": "United States", "ranking": "763", "name": "Howard University"}, {"city": "Ciudad de M\u00e9xico", "location": "Mexico", "ranking": "764", "name": "Instituto Polit\u00e9cnico Nacional (IPN)"}, {"city": "Mexico City", "location": "Mexico", "ranking": "765", "name": "Instituto Tecnol\u00f3gico Aut\u00f3nomo de M\u00e9xico (ITAM)"}, {"city": "Buenos Aires", "location": "Argentina", "ranking": "766", "name": "Instituto Tecnol\u00f3gico de Buenos Aires (ITBA)"}, {"city": "Keele", "location": "United Kingdom", "ranking": "767", "name": "Keele University"}, {"city": "Lanzhou", "location": "China (Mainland)", "ranking": "768", "name": "Lanzhou University"}, {"city": "Nizhny Novgorod", "location": "Russia", "ranking": "769", "name": "Lobachevsky University"}, {"city": "Manipal", "location": "India", "ranking": "770", "name": "Manipal Academy of Higher Education, Manipal, Karnataka, India"}, {"city": "St. John's", "location": "Canada", "ranking": "771", "name": "Memorial University of Newfoundland"}, {"city": "Houghton", "location": "United States", "ranking": "772", "name": "Michigan Technological University"}, {"city": "London", "location": "United Kingdom", "ranking": "773", "name": "Middlesex University"}, {"city": "Osaka City", "location": "Japan", "ranking": "774", "name": "Osaka Prefecture University"}, {"city": "Salzburg ", "location": "Austria", "ranking": "775", "name": "Paris Lodron University of Salzburg"}, {"city": "Marburg", "location": "Germany", "ranking": "776", "name": "Philipps-Universit\u00e4t Marburg"}, {"city": "Valpara\u00edso", "location": "Chile", "ranking": "777", "name": "Pontificia Universidad Cat\u00f3lica de Valpara\u00edso"}, {"city": "Riga", "location": "Latvia", "ranking": "778", "name": "Riga Technical University"}, {"city": "St. Petersburg", "location": "Russia", "ranking": "779", "name": "Saint Petersburg Electrotechnical University ETU-LETI"}, {"city": "Shiraz", "location": "Iran", "ranking": "780", "name": "Shiraz University"}, {"city": "Syracuse", "location": "United States", "ranking": "781", "name": "Syracuse University"}, {"city": "Philadelphia", "location": "United States", "ranking": "782", "name": "Temple University"}, {"city": "Santiago", "location": "Chile", "ranking": "783", "name": "Universidad Adolfo Ib\u00e1\u00f1ez"}, {"city": "Texcoco", "location": "Mexico", "ranking": "784", "name": "Universidad Autonoma Chapingo"}, {"city": "Caracas City", "location": "Venezuela", "ranking": "785", "name": "Universidad Cat\u00f3lica Andres Bello"}, {"city": "Buenos Aires", "location": "Argentina", "ranking": "786", "name": "Universidad de San Andr\u00e9s - UdeSA"}, {"city": "Montevideo", "location": "Uruguay", "ranking": "787", "name": "Universidad de la Rep\u00fablica (Udelar)"}, {"city": "Bogot\u00e1", "location": "Colombia", "ranking": "788", "name": "Universidad del Rosario"}, {"city": "Porto Alegre", "location": "Brazil", "ranking": "789", "name": "Universidade Federal do Rio Grande Do Sul"}, {"city": "Santiago de Compostela", "location": "Spain", "ranking": "790", "name": "Universidade de Santiago de Compostela"}, {"city": "Bandung", "location": "Indonesia", "ranking": "791", "name": "Universitas Padjadjaran (UNPAD)"}, {"city": "Tarragona", "location": "Spain", "ranking": "792", "name": "Universitat Rovira i Virgili"}, {"city": "D\u00fcsseldorf", "location": "Germany", "ranking": "793", "name": "University Duesseldorf"}, {"city": "Denver", "location": "United States", "ranking": "794", "name": "University of Denver"}, {"city": "Houston", "location": "United States", "ranking": "795", "name": "University of Houston"}, {"city": "Hyderabad", "location": "India", "ranking": "797", "name": "University of Hyderabad"}, {"city": "Siena", "location": "Italy", "ranking": "798", "name": "University of Siena"}, {"city": "Windsor", "location": "Canada", "ranking": "799", "name": "University of Windsor"}, {"city": "Nice", "location": "France", "ranking": "800", "name": "Universit\u00e9 C\u00f4te d'Azur"}, {"city": "Lille", "location": "France", "ranking": "801", "name": "Universit\u00e9 de Lille"}, {"city": "Sherbrooke", "location": "Canada", "ranking": "802", "name": "Universit\u00e9 de Sherbrooke"}, {"city": "Sousse", "location": "Tunisia", "ranking": "803", "name": "Universit\u00e9 de Sousse"}, {"city": "Krakow", "location": "Poland", "ranking": "804", "name": "AGH University of Science and Technology"}, {"city": "Karaganda", "location": "Kazakhstan", "ranking": "805", "name": "Karaganda Buketov University"}, {"city": "Pozna\u0144", "location": "Poland", "ranking": "806", "name": "Adam Mickiewicz University, Pozna\u0144"}, {"city": "Cairo", "location": "Egypt", "ranking": "807", "name": "Ain Shams University in Cairo (ASU, Cairo)"}, {"city": "Melbourne", "location": "Australia", "ranking": "808", "name": "Australian Catholic University"}, {"city": "Dhaka", "location": "Bangladesh", "ranking": "809", "name": "Bangladesh University of Engineering and Technology"}, {"city": "Beijing", "location": "China (Mainland)", "ranking": "810", "name": "Beijing Foreign Studies University"}, {"city": "Beijing", "location": "China (Mainland)", "ranking": "811", "name": "Beijing Jiaotong University"}, {"city": "Beijing", "location": "China (Mainland)", "ranking": "812", "name": "Beijing University of Chinese Medicine"}, {"city": "Beijing", "location": "China (Mainland)", "ranking": "813", "name": "Beijing University of Posts and Telecommunications"}, {"city": "Beirut", "location": "Lebanon", "ranking": "814", "name": "Beirut Arab University"}, {"city": "Poole", "location": "United Kingdom", "ranking": "815", "name": "Bournemouth University"}, {"city": "Budapest", "location": "Hungary", "ranking": "816", "name": "Budapest University of Technology and Economics"}, {"city": "Venice", "location": "Italy", "ranking": "817", "name": "Ca' Foscari University of Venice"}, {"city": "Catania", "location": "Italy", "ranking": "818", "name": "Catania University"}, {"city": "Mohali", "location": "India", "ranking": "819", "name": "Chandigarh University"}, {"city": "Tainan City", "location": "Taiwan", "ranking": "820", "name": "Chang Jung Christian University"}, {"city": "Thurgoona", "location": "Australia", "ranking": "821", "name": "Charles Sturt University"}, {"city": "Xuzhou", "location": "China (Mainland)", "ranking": "822", "name": "China University of Mining and Technology"}, {"city": "Potsdam", "location": "United States", "ranking": "823", "name": "Clarkson University"}, {"city": "Clemson", "location": "United States", "ranking": "824", "name": "Clemson University"}, {"city": "Williamsburg", "location": "United States", "ranking": "825", "name": "College of William and Mary"}, {"city": "Krakow", "location": "Poland", "ranking": "826", "name": "Cracow University of Technology (Politechnika Krakowska)"}, {"city": "Prague", "location": "Czechia", "ranking": "827", "name": "Czech University of Life Sciences in Prague"}, {"city": "Manila", "location": "Philippines", "ranking": "828", "name": "De La Salle University"}, {"city": "Leicester", "location": "United Kingdom", "ranking": "829", "name": "De Montfort University"}, {"city": "Semarang", "location": "Indonesia", "ranking": "830", "name": "Diponegoro University"}, {"city": "Shanghai", "location": "China (Mainland)", "ranking": "831", "name": "Donghua University"}, {"city": "Da Nang", "location": "Vietnam", "ranking": "832", "name": "Duy Tan University"}, {"city": "Edinburgh", "location": "United Kingdom", "ranking": "833", "name": "Edinburgh Napier University"}, {"city": "Gda\u0144sk", "location": "Poland", "ranking": "834", "name": "Gda\u0144sk University of Technology"}, {"city": "Atlanta", "location": "United States", "ranking": "835", "name": "Georgia State University"}, {"city": "Amman", "location": "Jordan", "ranking": "836", "name": "German Jordanian University"}, {"city": "Kuwait City", "location": "Kuwait", "ranking": "837", "name": "Gulf University for Science and Technology"}, {"city": "Ankara", "location": "Turkey", "ranking": "838", "name": "Hacettepe University"}, {"city": "Harbin", "location": "China (Mainland)", "ranking": "839", "name": "Harbin Engineering University"}, {"city": "Tlaquepaque", "location": "Mexico", "ranking": "840", "name": "ITESO, Universidad Jesuita de Guadalajara"}, {"city": "Bhubaneswar", "location": "India", "ranking": "841", "name": "Indian Institute of Technology Bhubaneswar"}, {"city": "Indianapolis", "location": "United States", "ranking": "842", "name": "Indiana University\u2013Purdue University Indianapolis"}, {"city": "Santo Domingo", "location": "Dominican Republic", "ranking": "843", "name": "Instituto Tecnol\u00f3gico de Santo Domingo (INTEC)"}, {"city": "Tokyo", "location": "Japan", "ranking": "844", "name": "International Christian University"}, {"city": "Madinah", "location": "Saudi Arabia", "ranking": "845", "name": "Islamic University of Madinah"}, {"city": "Istanbul", "location": "Turkey", "ranking": "846", "name": "Istanbul University"}, {"city": "New Delhi", "location": "India", "ranking": "847", "name": "Jamia Millia Islamia"}, {"city": "Irbid", "location": "Jordan", "ranking": "848", "name": "Jordan University of Science & Technology"}, {"city": "Manhattan", "location": "United States", "ranking": "849", "name": "Kansas State University"}, {"city": "Bangkok", "location": "Thailand", "ranking": "850", "name": "Kasetsart University"}, {"city": "Kaunas", "location": "Lithuania", "ranking": "851", "name": "Kaunas University of Technology"}, {"city": "Almaty", "location": "Kazakhstan", "ranking": "852", "name": "Kazakh-British Technical University"}, {"city": "Khon Kaen", "location": "Thailand", "ranking": "853", "name": "Khon Kaen University"}, {"city": "Hofuf", "location": "Saudi Arabia", "ranking": "854", "name": "King Faisal University"}, {"city": "Bangkok", "location": "Thailand", "ranking": "855", "name": "King Mongkut's University of Technology Thonburi"}, {"city": "Bishkek", "location": "Kyrgyzstan", "ranking": "856", "name": "Kyrgyz-Turkish Manas University"}, {"city": "Liverpool ", "location": "United Kingdom", "ranking": "857", "name": "Liverpool John Moores University"}, {"city": "Lodz", "location": "Poland", "ranking": "858", "name": "Lodz University of Technology"}, {"city": "London", "location": "United Kingdom", "ranking": "859", "name": "London Metropolitan University"}, {"city": "London", "location": "United Kingdom", "ranking": "860", "name": "London South Bank University"}, {"city": "Baton Rouge", "location": "United States", "ranking": "861", "name": "Louisiana State University"}, {"city": "Chicago", "location": "United States", "ranking": "862", "name": "Loyola University Chicago"}, {"city": "Lviv", "location": "Ukraine", "ranking": "863", "name": "Lviv Polytechnic National University"}, {"city": "Manchester ", "location": "United Kingdom", "ranking": "864", "name": "Manchester Metropolitan University"}, {"city": "Maynooth", "location": "Ireland", "ranking": "865", "name": "Maynooth University"}, {"city": "Brno", "location": "Czechia", "ranking": "866", "name": "Mendel University in Brno"}, {"city": "Almaty", "location": "Kazakhstan", "ranking": "867", "name": "NJSC KIMEP University"}, {"city": "Nanjing", "location": "China (Mainland)", "ranking": "868", "name": "Nanjing Agricultural University"}, {"city": "Nanjing", "location": "China (Mainland)", "ranking": "869", "name": "Nanjing University of Aeronautics and Astronautics"}, {"city": "Minxiong Township", "location": "Taiwan", "ranking": "870", "name": "National Chung Cheng University"}, {"city": "Tiruchirappalli", "location": "India", "ranking": "871", "name": "National Institute of Technology, Tiruchirappalli"}, {"city": "Toru\u0144", "location": "Poland", "ranking": "872", "name": "Nicolaus Copernicus University"}, {"city": "Arar", "location": "Saudi Arabia", "ranking": "873", "name": "Northern Borders University"}, {"city": "Yangling", "location": "China (Mainland)", "ranking": "874", "name": "Northwest Agriculture and Forestry University"}, {"city": "Xi'an", "location": "China (Mainland)", "ranking": "875", "name": "Northwest University (China)"}, {"city": "Koura", "location": "Lebanon", "ranking": "876", "name": "Notre Dame University-Louaize NDU"}, {"city": "Nottingham", "location": "United Kingdom", "ranking": "877", "name": "Nottingham Trent University"}, {"city": "Novosibirsk", "location": "Russia", "ranking": "878", "name": "Novosibirsk State Technical University"}, {"city": "Stillwater", "location": "United States", "ranking": "879", "name": "Oklahoma State University"}, {"city": "Perm", "location": "Russia", "ranking": "880", "name": "Perm State National Research University"}, {"city": "Puducherry", "location": "India", "ranking": "881", "name": "Pondicherry University"}, {"city": "Quito", "location": "Ecuador", "ranking": "882", "name": "Pontificia Universidad Cat\u00f3lica del Ecuador (PUCE)"}, {"city": "S\u00e3o Paulo", "location": "Brazil", "ranking": "883", "name": "Pontif\u00edcia Universidade Cat\u00f3lica de S\u00e3o Paulo"}, {"city": "Poznan", "location": "Poland", "ranking": "884", "name": "Poznan University of Technology"}, {"city": "Hat Yai", "location": "Thailand", "ranking": "885", "name": "Prince of Songkla University"}, {"city": "Amman", "location": "Jordan", "ranking": "886", "name": "Princess Sumaya University for Technology"}, {"city": "Buraydah", "location": "Saudi Arabia", "ranking": "887", "name": "Qassim University"}, {"city": "Musselburgh", "location": "United Kingdom", "ranking": "888", "name": "Queen Margaret University , Edinburgh"}, {"city": "Grahamstown", "location": "South Africa", "ranking": "889", "name": "Rhodes University"}, {"city": "Riga", "location": "Latvia", "ranking": "890", "name": "Riga Stradins University"}, {"city": "Beppu City", "location": "Japan", "ranking": "891", "name": "Ritsumeikan Asia Pacific University"}, {"city": "Aberdeen", "location": "United Kingdom", "ranking": "892", "name": "Robert Gordon University"}, {"city": "Moscow", "location": "Russia", "ranking": "893", "name": "Russian Presidential Academy of National Economy and Public Administration"}, {"city": "Yerevan", "location": "Armenia", "ranking": "894", "name": "Russian-Armenian University (RAU)"}, {"city": "Newark", "location": "United States", "ranking": "895", "name": "Rutgers University\u2013Newark"}, {"city": "Toronto", "location": "Canada", "ranking": "896", "name": "Toronto Metropolitan University"}, {"city": "St. Petersburg", "location": "Russia", "ranking": "897", "name": "Saint-Petersburg Mining University"}, {"city": "Matsumoto City", "location": "Japan", "ranking": "898", "name": "Shinshu University"}, {"city": "Solan", "location": "India", "ranking": "899", "name": "Shoolini University of Biotechnology and Management Sciences"}, {"city": "Bratislava", "location": "Slovakia", "ranking": "900", "name": "Slovak University of Technology in Bratislava"}, {"city": "Tokyo", "location": "Japan", "ranking": "901", "name": "Sophia University"}, {"city": "Chelyabinsk", "location": "Russia", "ranking": "902", "name": "South Ural State University (National Research University)"}, {"city": "Dallas", "location": "United States", "ranking": "903", "name": "Southern Methodist University"}, {"city": "Sumy", "location": "Ukraine", "ranking": "904", "name": "Sumy State University"}, {"city": "Budapest", "location": "Hungary", "ranking": "905", "name": "MATE Hungarian University of Agriculture and Life Sciences"}, {"city": "Gy\u0151r", "location": "Hungary", "ranking": "906", "name": "Szechenyi Istvan University (University of Gyor)"}, {"city": "Dortmund", "location": "Germany", "ranking": "907", "name": "TU Dortmund University"}, {"city": "Ko\u0161ice", "location": "Slovakia", "ranking": "908", "name": "Technical University of Kosice"}, {"city": "Liberec", "location": "Czechia", "ranking": "909", "name": "Technical University of Liberec"}, {"city": "Dublin", "location": "Ireland", "ranking": "910", "name": "Technological University Dublin"}, {"city": "Cartago", "location": "Costa Rica", "ranking": "911", "name": "Tecnol\u00f3gico de Costa Rica -TEC"}, {"city": "Kagurazaka", "location": "Japan", "ranking": "912", "name": "Tokyo University of Science"}, {"city": "Gda\u0144sk", "location": "Poland", "ranking": "913", "name": "UNIVERSITY OF GDANSK"}, {"city": "Mexico City", "location": "Mexico", "ranking": "915", "name": "Universidad Aut\u00f3noma Metropolitana (UAM)"}, {"city": "Pachuca", "location": "Mexico", "ranking": "916", "name": "Universidad Aut\u00f3noma del Estado de Hidalgo (UAEH)"}, {"city": "Toluca de Lerdo", "location": "Mexico", "ranking": "917", "name": "Universidad Aut\u00f3noma del Estado de M\u00e9xico (UAEMex)"}, {"city": "Santiago", "location": "Chile", "ranking": "918", "name": "Universidad Diego Portales (UDP)"}, {"city": "Medellin", "location": "Colombia", "ranking": "919", "name": "Universidad EAFIT"}, {"city": "Lima", "location": "Peru", "ranking": "920", "name": "Universidad Nacional Mayor de San Marcos"}, {"city": "C\u00f3rdoba", "location": "Argentina", "ranking": "921", "name": "Universidad Nacional de C\u00f3rdoba - UNC"}, {"city": "Rosario", "location": "Argentina", "ranking": "922", "name": "Universidad Nacional de Rosario (UNR)"}, {"city": "San Luis ", "location": "Argentina", "ranking": "923", "name": "Universidad Nacional de San Luis"}, {"city": "Caracas", "location": "Venezuela", "ranking": "924", "name": "Universidad Sim\u00f3n Bol\u00edvar (USB)"}, {"city": "Buenos Aires", "location": "Argentina", "ranking": "925", "name": "Universidad Tecnol\u00f3gica Nacional (UTN)"}, {"city": "Buenos Aires", "location": "Argentina", "ranking": "926", "name": "Universidad Torcuato Di Tella"}, {"city": "Guadalajara", "location": "Mexico", "ranking": "927", "name": "Universidad de Guadalajara (UDG)"}, {"city": "Merida", "location": "Venezuela", "ranking": "928", "name": "Universidad de Los Andes - (ULA) M\u00e9rida"}, {"city": "Santiago de Cuba", "location": "Cuba", "ranking": "929", "name": "Universidad de Oriente, Santiago de Cuba"}, {"city": "Cholula", "location": "Mexico", "ranking": "930", "name": "Universidad de las Am\u00e9ricas Puebla (UDLAP)"}, {"city": "Santiago", "location": "Chile", "ranking": "931", "name": "Universidad de los Andes - Chile"}, {"city": "Cali", "location": "Colombia", "ranking": "932", "name": "Universidad del Valle"}, {"city": "Lisbon", "location": "Portugal", "ranking": "933", "name": "Universidade Cat\u00f3lica Portuguesa - UCP"}, {"city": "Florian\u00f3polis", "location": "Brazil", "ranking": "934", "name": "Universidade Federal de Santa Catarina"}, {"city": "S\u00e3o Paulo", "location": "Brazil", "ranking": "935", "name": "Universidade Federal de S\u00e3o Carlos (UFSCar)"}, {"city": "Curitiba", "location": "Brazil", "ranking": "936", "name": "Universidade Federal do Paran\u00e1 - UFPR"}, {"city": "Bras\u00edlia", "location": "Brazil", "ranking": "937", "name": "Universidade de Bras\u00edlia"}, {"city": "Ancona", "location": "Italy", "ranking": "938", "name": "Universita' Politecnica delle Marche"}, {"city": "Ferrara", "location": "Italy", "ranking": "939", "name": "Universita' degli Studi di Ferrara"}, {"city": "Malang ", "location": "Indonesia", "ranking": "940", "name": "Universitas Brawijaya"}, {"city": "Kuantan", "location": "Malaysia", "ranking": "941", "name": "Universiti Malaysia Pahang"}, {"city": "Kangar", "location": "Malaysia", "ranking": "942", "name": "Universiti Malaysia Perlis"}, {"city": "Tanjong Malim", "location": "Malaysia", "ranking": "943", "name": "Universiti Pendidikan Sultan Idris (UPSI)"}, {"city": "Kampar", "location": "Malaysia", "ranking": "944", "name": "Universiti Tunku Abdul Rahman (UTAR)"}, {"city": "Albany", "location": "United States", "ranking": "945", "name": "University at Albany SUNY"}, {"city": "Alicante", "location": "Spain", "ranking": "946", "name": "University of Alicante"}, {"city": "Baghdad", "location": "Iraq", "ranking": "947", "name": "University of Baghdad"}, {"city": "Zallaq", "location": "Bahrain", "ranking": "948", "name": "University of Bahrain"}, {"city": "Bari", "location": "Italy", "ranking": "949", "name": "University of Bari"}, {"city": "Brescia", "location": "Italy", "ranking": "950", "name": "University of Brescia"}, {"city": "Brighton", "location": "United Kingdom", "ranking": "951", "name": "University of Brighton"}, {"city": "Kolkata", "location": "India", "ranking": "952", "name": "University of Calcutta"}, {"city": "Orlando", "location": "United States", "ranking": "953", "name": "University of Central Florida"}, {"city": "Preston", "location": "United Kingdom", "ranking": "954", "name": "University of Central Lancashire"}, {"city": "Dhaka", "location": "Bangladesh", "ranking": "955", "name": "University of Dhaka"}, {"city": "Dubai", "location": "United Arab Emirates", "ranking": "956", "name": "University of Dubai"}, {"city": "London", "location": "United Kingdom", "ranking": "957", "name": "University of East London"}, {"city": "Lahore", "location": "Pakistan", "ranking": "958", "name": "University of Engineering & Technology (UET) Lahore"}, {"city": "Greenwich", "location": "United Kingdom", "ranking": "959", "name": "University of Greenwich"}, {"city": "West Hartford", "location": "United States", "ranking": "960", "name": "University of Hartford"}, {"city": "Hatfield", "location": "United Kingdom", "ranking": "961", "name": "University of Hertfordshire"}, {"city": "Stuttgart", "location": "Germany", "ranking": "962", "name": "University of Hohenheim"}, {"city": "Hradec Kr\u00e1lov\u00e9", "location": "Czechia", "ranking": "963", "name": "University of Hradec Kralove"}, {"city": "Moscow", "location": "United States", "ranking": "964", "name": "University of Idaho"}, {"city": "Pinetown", "location": "South Africa", "ranking": "965", "name": "University of Kwazulu-Natal"}, {"city": "Lincoln", "location": "United Kingdom", "ranking": "966", "name": "University of Lincoln"}, {"city": "Lodz", "location": "Poland", "ranking": "967", "name": "University of Lodz"}, {"city": "Louisville", "location": "United States", "ranking": "968", "name": "University of Louisville College of Business"}, {"city": "Msida", "location": "Malta", "ranking": "969", "name": "University of Malta"}, {"city": "Maribor", "location": "Slovenia", "ranking": "970", "name": "University of Maribor"}, {"city": "Baltimore", "location": "United States", "ranking": "971", "name": "University of Maryland, Baltimore County"}, {"city": "Messina", "location": "Italy", "ranking": "972", "name": "University of Messina (UniME)"}, {"city": "Oxford", "location": "United States", "ranking": "973", "name": "University of Mississippi"}, {"city": "Modena", "location": "Italy", "ranking": "974", "name": "University of Modena and Reggio Emilia"}, {"city": "Murcia", "location": "Spain", "ranking": "975", "name": "University of Murcia"}, {"city": "Armidale", "location": "Australia", "ranking": "976", "name": "University of New England Australia"}, {"city": "Durham", "location": "United States", "ranking": "977", "name": "University of New Hampshire"}, {"city": "Parma", "location": "Italy", "ranking": "978", "name": "University of Parma"}, {"city": "Patras", "location": "Greece", "ranking": "979", "name": "University of Patras"}, {"city": "Peshawar", "location": "Pakistan", "ranking": "980", "name": "University of Peshawar"}, {"city": "Salford", "location": "United Kingdom", "ranking": "981", "name": "University of Salford"}, {"city": "Manila", "location": "Philippines", "ranking": "982", "name": "University of Santo Tomas"}, {"city": "Seoul", "location": "South Korea", "ranking": "983", "name": "University of Seoul"}, {"city": "Tulsa", "location": "United States", "ranking": "984", "name": "University of Tulsa"}, {"city": "Tyumen", "location": "Russia", "ranking": "985", "name": "University of Tyumen"}, {"city": "Wroclaw", "location": "Poland", "ranking": "986", "name": "University of Wroclaw"}, {"city": "Laramie", "location": "United States", "ranking": "987", "name": "University of Wyoming"}, {"city": "Zagreb", "location": "Croatia", "ranking": "988", "name": "University of Zagreb"}, {"city": "Lahore", "location": "Pakistan", "ranking": "989", "name": "University of the Punjab"}, {"city": "Bristol", "location": "United Kingdom", "ranking": "990", "name": "University of the West of England"}, {"city": "Zilina", "location": "Slovakia", "ranking": "991", "name": "University of Zilina"}, {"city": "Perugia", "location": "Italy", "ranking": "992", "name": "Universit\u00e0 degli Studi di Perugia"}, {"city": "Rome", "location": "Italy", "ranking": "993", "name": "Universit\u00e0 degli studi Roma Tre"}, {"city": "Duisburg", "location": "Germany", "ranking": "994", "name": "Universit\u00e4t Duisburg-Essen"}, {"city": "Nancy", "location": "France", "ranking": "995", "name": "Universit\u00e9 de Lorraine"}, {"city": "Nantes", "location": "France", "ranking": "996", "name": "Nantes University"}, {"city": "Rennes", "location": "France", "ranking": "997", "name": "Universit\u00e9 de Rennes 1"}, {"city": "Verona", "location": "Italy", "ranking": "998", "name": "Verona University"}, {"city": "Ho Chi Minh City", "location": "Vietnam", "ranking": "999", "name": "Viet Nam National University Ho Chi Minh City (VNU-HCM)"}, {"city": "Hanoi", "location": "Vietnam", "ranking": "1000", "name": "Vietnam National University, Hanoi"}, {"city": "Kaunas", "location": "Lithuania", "ranking": "1001", "name": "Vytautas Magnus University"}, {"city": "Worcester", "location": "United States", "ranking": "1002", "name": "Worcester Polytechnic Institute"}, {"city": "Wroclaw ", "location": "Poland", "ranking": "1003", "name": "Wroclaw University of Science and Technology (WRUST)"}, {"city": "Wuhan", "location": "China (Mainland)", "ranking": "1004", "name": "Wuhan University of Technology"}, {"city": "Yamaguchi City", "location": "Japan", "ranking": "1005", "name": "Yamaguchi University"}, {"city": "", "location": "Armenia", "ranking": "1006", "name": "Yerevan State University"}, {"city": "Gyeongsan", "location": "South Korea", "ranking": "1007", "name": "Yeungnam University"}, {"city": "Yokohama City", "location": "Japan", "ranking": "1008", "name": "Yokohama National University"}, {"city": "Zhengzhou", "location": "China (Mainland)", "ranking": "1009", "name": "Zhengzhou University"}, {"city": "East Jerusalem", "location": "Palestinian Territories", "ranking": "1010", "name": "Al-Quds University"}, {"city": "Alexandria", "location": "Egypt", "ranking": "1011", "name": "Alexandria University"}, {"city": "Aligarh", "location": "India", "ranking": "1012", "name": "Aligarh Muslim University"}, {"city": "Noida", "location": "India", "ranking": "1013", "name": "Amity University"}, {"city": "Amritapuri", "location": "India", "ranking": "1014", "name": "Amrita Vishwa Vidyapeetham"}, {"city": "Nablus", "location": "Palestinian Territories", "ranking": "1015", "name": "An-Najah National University"}, {"city": "Ankara", "location": "Turkey", "ranking": "1016", "name": "Ankara \u00dcniversitesi"}, {"city": "Taichung City", "location": "Taiwan", "ranking": "1017", "name": "Asia University Taiwan"}, {"city": "Asyut", "location": "Egypt", "ranking": "1018", "name": "Assiut University"}, {"city": "Athens", "location": "Greece", "ranking": "1019", "name": "Athens University of Economics and Business"}, {"city": "Auburn", "location": "United States", "ranking": "1020", "name": "Auburn University"}, {"city": "Baku", "location": "Azerbaijan", "ranking": "1021", "name": "Azerbaijan State University of Economics"}, {"city": "Dhaka", "location": "Bangladesh", "ranking": "1022", "name": "BRAC University"}, {"city": "Cluj-Napoca", "location": "Romania", "ranking": "1023", "name": "Babes-Bolyai University"}, {"city": "Baku", "location": "Azerbaijan", "ranking": "1024", "name": "Baku State University"}, {"city": "Varanasi", "location": "India", "ranking": "1025", "name": "Banaras Hindu University"}, {"city": "Waco", "location": "United States", "ranking": "1026", "name": "Baylor University"}, {"city": "Minsk", "location": "Belarus", "ranking": "1027", "name": "Belarusian State University of Informatics and Radioelectronics"}, {"city": "Puebla", "location": "Mexico", "ranking": "1028", "name": "Benemerita Universidad Autonoma de Puebla"}, {"city": "Bielefeld", "location": "Germany", "ranking": "1029", "name": "Bielefeld University"}, {"city": "Jakarta", "location": "Indonesia", "ranking": "1030", "name": "Bina Nusantara University (BINUS)"}, {"city": "Binghamton", "location": "United States", "ranking": "1031", "name": "Binghamton University SUNY"}, {"city": "Pilani", "location": "India", "ranking": "1032", "name": "Birla Institute of Technology and Science, Pilani"}, {"city": "Birmingham", "location": "United Kingdom", "ranking": "1033", "name": "Birmingham City University"}, {"city": "Provo", "location": "United States", "ranking": "1034", "name": "Brigham Young University"}, {"city": "St. Catharines", "location": "Canada", "ranking": "1035", "name": "Brock University"}, {"city": "Madrid", "location": "Spain", "ranking": "1036", "name": "CEU Universities"}, {"city": "Islamabad", "location": "Pakistan", "ranking": "1037", "name": "COMSATS University Islamabad"}, {"city": "New York City", "location": "United States", "ranking": "1038", "name": "The City College of New York"}, {"city": "Bexleyheath", "location": "United Kingdom", "ranking": "1039", "name": "Canterbury Christ Church University"}, {"city": "Cheongju", "location": "South Korea", "ranking": "1040", "name": "Chungbuk National University"}, {"city": "Budapest", "location": "Hungary", "ranking": "1041", "name": "Corvinus University of Budapest"}, {"city": "Kyoto", "location": "Japan", "ranking": "1042", "name": "Doshisha University"}, {"city": "", "location": "Ecuador", "ranking": "1043", "name": "Escuela Polit\u00e9cnica Nacional"}, {"city": "Guayaquil", "location": "Ecuador", "ranking": "1044", "name": "Escuela Superior Polit\u00e9cnica del Litoral (ESPOL)"}, {"city": "Moscow", "location": "Russia", "ranking": "1045", "name": "Financial University under the Government of the Russian Federation"}, {"city": "New York City", "location": "United States", "ranking": "1046", "name": "Fordham University"}, {"city": "New Cairo", "location": "Egypt", "ranking": "1047", "name": "Future University in Egypt"}, {"city": "Ankara", "location": "Turkey", "ranking": "1048", "name": "Gazi \u00dcniversitesi"}, {"city": "Fairfax", "location": "United States", "ranking": "1049", "name": "George Mason University"}, {"city": "Glasgow", "location": "United Kingdom", "ranking": "1050", "name": "Glasgow Caledonian University"}, {"city": "Newport", "location": "United Kingdom", "ranking": "1051", "name": "Harper Adams University"}, {"city": "Wuhan", "location": "China (Mainland)", "ranking": "1052", "name": "Huazhong Agricultural University"}, {"city": "Riyadh", "location": "Saudi Arabia", "ranking": "1053", "name": "Imam Mohammad Ibn Saud Islamic University \u2013 IMSIU"}, {"city": "Istanbul", "location": "Turkey", "ranking": "1054", "name": "Istanbul Aydin University"}, {"city": "Lviv", "location": "Ukraine", "ranking": "1055", "name": "Ivan Franko National University of Lviv"}, {"city": "Jeju City", "location": "South Korea", "ranking": "1056", "name": "Jeju National University"}, {"city": "Wuxi", "location": "China (Mainland)", "ranking": "1057", "name": "Jiangnan University"}, {"city": "Chuncheon", "location": "South Korea", "ranking": "1058", "name": "Kangwon National University"}, {"city": "Almaty", "location": "Kazakhstan", "ranking": "1059", "name": "Kazakh Ablai Khan University of International Relations and World Languages"}, {"city": "Kazan", "location": "Russia", "ranking": "1060", "name": "Kazan National Research Technological University"}, {"city": "Kent", "location": "United States", "ranking": "1061", "name": "Kent State University"}, {"city": "Kharkiv", "location": "Ukraine", "ranking": "1062", "name": "Kharkiv National University of Radio Electronics"}, {"city": "Seoul", "location": "South Korea", "ranking": "1063", "name": "Kookmin University"}, {"city": "Kuwait City", "location": "Kuwait", "ranking": "1064", "name": "Kuwait University"}, {"city": "Kyoto", "location": "Japan", "ranking": "1065", "name": "Kyoto Institute of Technology"}, {"city": "Kitakyushu", "location": "Japan", "ranking": "1066", "name": "Kyushu Institute of Technology"}, {"city": "Leeds", "location": "United Kingdom", "ranking": "1067", "name": "Leeds Beckett University"}, {"city": "Milwaukee", "location": "United States", "ranking": "1068", "name": "Marquette University"}, {"city": "Moscow", "location": "Russia", "ranking": "1069", "name": "Mendeleev University of Chemical Technology"}, {"city": "Starkville", "location": "United States", "ranking": "1070", "name": "Mississippi State University"}, {"city": "Cyberjaya", "location": "Malaysia", "ranking": "1071", "name": "Multimedia University (MMU)"}, {"city": "Baghdad", "location": "Iraq", "ranking": "1072", "name": "Mustansiriyah University"}, {"city": "Mu'tah", "location": "Jordan", "ranking": "1073", "name": "Mutah University"}, {"city": "Vilnius", "location": "Lithuania", "ranking": "1074", "name": "Mykolas Romeris University"}, {"city": "Nagoya", "location": "Japan", "ranking": "1075", "name": "Nagoya Institute of Technology (NIT)"}, {"city": "Nanjing", "location": "China (Mainland)", "ranking": "1076", "name": "Nanjing Normal University"}, {"city": "Keelung City", "location": "Taiwan", "ranking": "1077", "name": "National Taiwan Ocean University"}, {"city": "Kyiv", "location": "Ukraine", "ranking": "1078", "name": "National University of Kyiv-Mohyla Academy (NaUKMA)"}, {"city": "Dhaka", "location": "Bangladesh", "ranking": "1079", "name": "North South University"}, {"city": "Potchefstroom", "location": "South Africa", "ranking": "1080", "name": "North-West University"}, {"city": "Qingdao", "location": "China (Mainland)", "ranking": "1081", "name": "Ocean University of China"}, {"city": "Odessa", "location": "Ukraine", "ranking": "1082", "name": "Odessa I.I.Mechnikov National University"}, {"city": "Athens", "location": "United States", "ranking": "1083", "name": "Ohio University"}, {"city": "Montpellier", "location": "France", "ranking": "1084", "name": "Paul Val\u00e9ry University Montpellier"}, {"city": "Rochester", "location": "United States", "ranking": "1085", "name": "Rochester Institute of Technology (RIT)"}, {"city": "Saitama City", "location": "Japan", "ranking": "1086", "name": "Saitama University"}, {"city": "San Diego ", "location": "United States", "ranking": "1087", "name": "San Diego State University"}, {"city": "Chennai", "location": "India", "ranking": "1088", "name": "Sathyabama Institute of Science and Technology (Deemed to be University)"}, {"city": "Seattle", "location": "United States", "ranking": "1089", "name": "Seattle University"}, {"city": "Seoul", "location": "South Korea", "ranking": "1090", "name": "Seoul National University of Science and Technology"}, {"city": "Tehran", "location": "Iran", "ranking": "1091", "name": "Shahid Beheshti University (SBU)"}, {"city": "Shanghai", "location": "China (Mainland)", "ranking": "1092", "name": "Shanghai International Studies University"}, {"city": "", "location": "", "ranking": "1093", "name": "Sheffield Hallam University"}, {"city": "Krasnoyarsk", "location": "Russia", "ranking": "1094", "name": "Siberian Federal University, SibFU"}, {"city": "Bhubaneswar", "location": "India", "ranking": "1095", "name": "Siksha \u2018O\u2019 Anusandhan (Deemed to be University), SOA"}, {"city": "Gliwice", "location": "Poland", "ranking": "1096", "name": "Silesian University of Technology"}, {"city": "Seoul", "location": "South Korea", "ranking": "1097", "name": "Sookmyung Women's University"}, {"city": "Medina", "location": "Saudi Arabia", "ranking": "1098", "name": "Taibah University"}, {"city": "Tallinn", "location": "Estonia", "ranking": "1099", "name": "Tallinn University"}, {"city": "Lublin", "location": "Poland", "ranking": "1100", "name": "Technical University of Lublin"}, {"city": "Bandung", "location": "Indonesia", "ranking": "1101", "name": "Telkom University"}, {"city": "Lubbock", "location": "United States", "ranking": "1102", "name": "Texas Tech University"}, {"city": "Patiala", "location": "India", "ranking": "1103", "name": "Thapar Institute of Engineering & Technology"}, {"city": "", "location": "Russia", "ranking": "1104", "name": "The Herzen State Pedagogical University of Russia"}, {"city": "Osijek", "location": "Croatia", "ranking": "1105", "name": "The Josip Juraj Strossmayer University of Osijek"}, {"city": "Belgorod", "location": "Russia", "ranking": "1106", "name": "The National Research University \"Belgorod State University\""}, {"city": "Tuscaloosa", "location": "United States", "ranking": "1107", "name": "The University of Alabama"}, {"city": "Lahore", "location": "Pakistan", "ranking": "1108", "name": "The University of Lahore"}, {"city": "Northampton", "location": "United Kingdom", "ranking": "1109", "name": "The University of Northampton"}, {"city": "Hiratsuka City", "location": "Japan", "ranking": "1110", "name": "Tokai University"}, {"city": "Zlin", "location": "Czechia", "ranking": "1111", "name": "Tomas Bata University in Zlin"}, {"city": "Ho Chi Minh City", "location": "Vietnam", "ranking": "1112", "name": "Ton Duc Thang University"}, {"city": "Santiago", "location": "Chile", "ranking": "1113", "name": "Universidad Andr\u00e9s Bello"}, {"city": "Valdivia", "location": "Chile", "ranking": "1114", "name": "Universidad Austral de Chile"}, {"city": "Aguascalientes", "location": "Mexico", "ranking": "1115", "name": "Universidad Aut\u00f3noma de Aguascalientes (UAA)"}, {"city": "San Nicol\u00e1s de los Garza", "location": "Mexico", "ranking": "1116", "name": "Universidad Aut\u00f3noma de Nuevo Le\u00f3n"}, {"city": "Bucaramanga", "location": "Colombia", "ranking": "1117", "name": "Universidad Industrial de Santander - UIS"}, {"city": "San Jos\u00e9", "location": "Costa Rica", "ranking": "1118", "name": "ULACIT - Universidad Latinoamericana de Ciencia y Tecnolog\u00eda, Costa Rica"}, {"city": "Lima", "location": "Peru", "ranking": "1119", "name": "Universidad Nacional Agraria la Molina"}, {"city": "Mendoza", "location": "Argentina", "ranking": "1120", "name": "Universidad Nacional de Cuyo"}, {"city": "R\u00edo Cuarto", "location": "Argentina", "ranking": "1121", "name": "Universidad Nacional de R\u00edo Cuarto - UNRC"}, {"city": "San Lorenzo", "location": "Paraguay", "ranking": "1122", "name": "Universidad Nacional de la Asunci\u00f3n"}, {"city": "Heredia", "location": "Costa Rica", "ranking": "1123", "name": "Universidad Nacional Costa Rica"}, {"city": "Monterrico", "location": "Peru", "ranking": "1124", "name": "Universidad Peruana de Ciencias Aplicadas"}, {"city": "M\u00f3stoles", "location": "Spain", "ranking": "1125", "name": "Universidad Rey Juan Carlos"}, {"city": "Panama City", "location": "Panama", "ranking": "1126", "name": "Universidad Tecnol\u00f3gica de Panam\u00e1 (UTP)"}, {"city": "Valpara\u00edso", "location": "Chile", "ranking": "1127", "name": "Universidad T\u00e9cnica Federico Santa Mar\u00eda (USM)"}, {"city": "Ciudad Real", "location": "Spain", "ranking": "1128", "name": "Universidad de Castilla-La Mancha"}, {"city": "Monter\u00eda", "location": "Colombia", "ranking": "1129", "name": "Universidad de C\u00f3rdoba - Colombia"}, {"city": "Lima", "location": "Peru", "ranking": "1130", "name": "Universidad de Lima"}, {"city": "San Pedro Garza Garc\u00eda", "location": "Mexico", "ranking": "1131", "name": "Universidad de Monterrey (UDEM)"}, {"city": "Oviedo", "location": "Spain", "ranking": "1132", "name": "Universidad de Oviedo"}, {"city": "Talca", "location": "Chile", "ranking": "1133", "name": "Universidad de Talca"}, {"city": "Valladolid", "location": "Spain", "ranking": "1134", "name": "Universidad de Valladolid"}, {"city": "Valpara\u00edso", "location": "Chile", "ranking": "1135", "name": "Universidad de Valpara\u00edso (UV)"}, {"city": "Barranquilla", "location": "Colombia", "ranking": "1136", "name": "Universidad del Norte"}, {"city": "Jes\u00fas Mar\u00eda", "location": "Peru", "ranking": "1137", "name": "Universidad del Pac\u00edfico"}, {"city": "Juiz de For a", "location": "Brazil", "ranking": "1138", "name": "Universidade Federal de Juiz de Fora- (UFJF)"}, {"city": "Pelotas", "location": "Brazil", "ranking": "1139", "name": "Universidade Federal de Pelotas"}, {"city": "Recife", "location": "Brazil", "ranking": "1140", "name": "Universidade Federal de Pernambuco (UFPE)"}, {"city": "A Coru\u00f1a", "location": "Spain", "ranking": "1141", "name": "Universidade da Coru\u00f1a"}, {"city": "Vigo", "location": "Spain", "ranking": "1142", "name": "Universidade de Vigo"}, {"city": "Rio de Janeiro", "location": "Brazil", "ranking": "1143", "name": "Universidade do Estado do Rio de Janeiro (UERJ)"}, {"city": "Makassar", "location": "Indonesia", "ranking": "1144", "name": "Universitas Hasanuddin"}, {"city": "Surakarta", "location": "Indonesia", "ranking": "1145", "name": "Universitas Sebelas Maret"}, {"city": "Kuala Lumpur ", "location": "Malaysia", "ranking": "1146", "name": "Universiti Kuala Lumpur (UniKL)"}, {"city": "Kota Kinabalu", "location": "Malaysia", "ranking": "1147", "name": "Universiti Malaysia Sabah (UMS)"}, {"city": "Kuching", "location": "Malaysia", "ranking": "1148", "name": "Universiti Malaysia Sarawak (UNIMAS)"}, {"city": "Kuala Terengganu", "location": "Malaysia", "ranking": "1149", "name": "Universiti Malaysia Terengganu (UMT)"}, {"city": "Batu Pahat", "location": "Malaysia", "ranking": "1150", "name": "Universiti Tun Hussein Onn  Malaysia (UTHM)"}, {"city": "Faisalabad", "location": "Pakistan", "ranking": "1151", "name": "University of Agriculture, Faisalabad"}, {"city": "Fayetteville", "location": "United States", "ranking": "1152", "name": "University of Arkansas Fayetteville"}, {"city": "Belgrade", "location": "Serbia", "ranking": "1153", "name": "University of Belgrade"}, {"city": "Bialystok", "location": "Poland", "ranking": "1154", "name": "University of Bialystok"}, {"city": "Bucharest", "location": "Romania", "ranking": "1155", "name": "University of Bucharest"}, {"city": "Rende", "location": "Italy", "ranking": "1156", "name": "University of Calabria"}, {"city": "Derby", "location": "United Kingdom", "ranking": "1157", "name": "University of Derby"}, {"city": "Hilo", "location": "United States", "ranking": "1158", "name": "University of Hawaii at Hilo"}, {"city": "Kufa", "location": "Iraq", "ranking": "1159", "name": "University of Kufa"}, {"city": "Riga", "location": "Latvia", "ranking": "1160", "name": "University of Latvia"}, {"city": "Miskolc", "location": "Hungary", "ranking": "1161", "name": "University of Miskolc"}, {"city": "St. Louis", "location": "United States", "ranking": "1162", "name": "University of Missouri Saint Louis"}, {"city": "Kansas City", "location": "United States", "ranking": "1163", "name": "University of Missouri, Kansas City"}, {"city": "Missoula ", "location": "United States", "ranking": "1164", "name": "University of Montana Missoula"}, {"city": "Mumbai", "location": "India", "ranking": "1165", "name": "University of Mumbai"}, {"city": "Nairobi", "location": "Kenya", "ranking": "1166", "name": "University of Nairobi"}, {"city": "Naples", "location": "Italy", "ranking": "1167", "name": "University of Naples Parthenope"}, {"city": "Denton", "location": "United States", "ranking": "1168", "name": "University of North Texas"}, {"city": "Ostrava", "location": "Czechia", "ranking": "1169", "name": "University of Ostrava"}, {"city": "Palermo", "location": "Italy", "ranking": "1170", "name": "University of Palermo"}, {"city": "Veszpr\u00e9m", "location": "Hungary", "ranking": "1171", "name": "University of Pannonia"}, {"city": "Pardubice", "location": "Czechia", "ranking": "1172", "name": "University of Pardubice"}, {"city": "Peradeniya", "location": "Sri Lanka", "ranking": "1173", "name": "University of Peradeniya"}, {"city": "Koper", "location": "Slovenia", "ranking": "1174", "name": "University of Primorska"}, {"city": "Saskatoon", "location": "Canada", "ranking": "1175", "name": "University of Regina"}, {"city": "Kingston", "location": "United States", "ranking": "1176", "name": "University of Rhode Island"}, {"city": "Rijeka", "location": "Croatia", "ranking": "1177", "name": "University of Rijeka"}, {"city": "Fisciano", "location": "Italy", "ranking": "1178", "name": "University of Salerno"}, {"city": "San Diego", "location": "United States", "ranking": "1179", "name": "University of San Diego"}, {"city": "San Francisco", "location": "United States", "ranking": "1180", "name": "University of San Francisco"}, {"city": "San Antonio", "location": "United States", "ranking": "1181", "name": "University of Texas at San Antonio"}, {"city": "Toledo", "location": "United States", "ranking": "1182", "name": "University of Toledo"}, {"city": "Olsztyn", "location": "Poland", "ranking": "1183", "name": "University of Warmia and Mazury in Olsztyn"}, {"city": "Milwaukee", "location": "United States", "ranking": "1184", "name": "University of Wisconsin Milwaukee"}, {"city": "Telford", "location": "United Kingdom", "ranking": "1185", "name": "University of Wolverhampton"}, {"city": "Stockton", "location": "United States", "ranking": "1186", "name": "University of the Pacific"}, {"city": "Sunshine Coast", "location": "Australia", "ranking": "1187", "name": "University of the Sunshine Coast"}, {"city": "Cape Town", "location": "South Africa", "ranking": "1188", "name": "University of the Western Cape"}, {"city": "Viterbo", "location": "Italy", "ranking": "1189", "name": "Universit\u00e0 degli Studi della Tuscia (University of Tuscia)"}, {"city": "Udine", "location": "Italy", "ranking": "1190", "name": "Universit\u00e0 degli Studi di Udine"}, {"city": "Siegen", "location": "Germany", "ranking": "1191", "name": "Universit\u00e4t Siegen"}, {"city": "Lyon", "location": "France", "ranking": "1192", "name": "Universit\u00e9 Lumi\u00e8re Lyon 2"}, {"city": "Toulouse", "location": "France", "ranking": "1193", "name": "Universit\u00e9 Toulouse 1 Capitole"}, {"city": "Poitiers", "location": "France", "ranking": "1194", "name": "Universit\u00e9 de Poitiers"}, {"city": "Toulouse", "location": "France", "ranking": "1195", "name": "Universit\u00e9 Toulouse - Jean Jaur\u00e8s"}, {"city": "Logan", "location": "United States", "ranking": "1196", "name": "Utah State University"}, {"city": "Nanaimo", "location": "Canada", "ranking": "1197", "name": "Vancouver Island University"}, {"city": "Vellore", "location": "India", "ranking": "1198", "name": "Vellore Institute of Technology (VIT), Vellore, India"}, {"city": "Voronezh ", "location": "Russia", "ranking": "1199", "name": "Voronezh State University"}, {"city": "Warsaw", "location": "Poland", "ranking": "1200", "name": "Warsaw University of Life Sciences  SGGW (WULS-SGGW)"}, {"city": "Morgantown", "location": "United States", "ranking": "1201", "name": "West Virginia University"}, {"city": "Kalamazoo", "location": "United States", "ranking": "1202", "name": "Western Michigan University"}, {"city": "Suzhou", "location": "China (Mainland)", "ranking": "1203", "name": "Xi'an Jiaotong Liverpool University"}, {"city": "Istanbul", "location": "Turkey", "ranking": "1204", "name": "Yildiz Technical University"}, {"city": "Rostov-on-Don", "location": "Russia", "ranking": "1205", "name": "Don State Technical University"}, {"city": "Antalya", "location": "Turkey", "ranking": "1206", "name": "Akdeniz \u00dcniversitesi"}, {"city": "Cairo", "location": "Egypt", "ranking": "1207", "name": "Al-Azhar University"}, {"city": "As-Salt", "location": "Jordan", "ranking": "1208", "name": "Al-Balqa Applied University"}, {"city": "Ia\u0219i", "location": "Romania", "ranking": "1209", "name": "Alexandru Ioan Cuza University"}, {"city": "Eskisehir", "location": "Turkey", "ranking": "1210", "name": "Anadolu University"}, {"city": "Tokyo", "location": "Japan", "ranking": "1211", "name": "Aoyama Gakuin University"}, {"city": "Multan", "location": "Pakistan", "ranking": "1212", "name": "Bahauddin Zakariya University"}, {"city": "Birzeit", "location": "Palestinian Territories", "ranking": "1213", "name": "Birzeit university"}, {"city": "El Shorouk", "location": "Egypt", "ranking": "1214", "name": "British University in Egypt"}, {"city": "San Luis Obispo", "location": "United States", "ranking": "1215", "name": "California Polytechnic State University"}, {"city": "Los Angeles", "location": "United States", "ranking": "1216", "name": "California State University - Los Angeles"}, {"city": "C\u00f3rdoba", "location": "Argentina", "ranking": "1217", "name": "Universidad Cat\u00f3lica de C\u00f3rdoba"}, {"city": "Mount Pleasant", "location": "United States", "ranking": "1218", "name": "Central Michigan University"}, {"city": "Beijing", "location": "China (Mainland)", "ranking": "1219", "name": "China University of Political Science and Law"}, {"city": "Taoyuan City", "location": "Taiwan", "ranking": "1220", "name": "Chung Yuan Christian University"}, {"city": "Cleveland ", "location": "United States", "ranking": "1221", "name": "Cleveland State University"}, {"city": "Izmir", "location": "Turkey", "ranking": "1222", "name": "Dokuz Eylul Universitesi"}, {"city": "\u0130zmir", "location": "Turkey", "ranking": "1223", "name": "EGE UNIVERSITY"}, {"city": "Taichung City", "location": "Taiwan", "ranking": "1224", "name": "Feng Chia University"}, {"city": "Boca Raton", "location": "United States", "ranking": "1225", "name": "Florida Atlantic University - Boca Raton"}, {"city": "New Taipei City", "location": "Taiwan", "ranking": "1226", "name": "Fu Jen Catholic University"}, {"city": "Bogot\u00e1", "location": "Colombia", "ranking": "1227", "name": "Fundaci\u00f3n Universidad de Bogot\u00e1 Jorge Tadeo Lozano"}, {"city": "Gebze", "location": "Turkey", "ranking": "1228", "name": "Gebze Technical University (GTU)"}, {"city": "Cairo", "location": "Egypt", "ranking": "1229", "name": "German University in Cairo"}, {"city": "Hanoi", "location": "Vietnam", "ranking": "1230", "name": "Hanoi University of Science and Technology"}, {"city": "Helwan", "location": "Egypt", "ranking": "1231", "name": "Helwan University"}, {"city": "Nanjing", "location": "China (Mainland)", "ranking": "1232", "name": "Hohai University"}, {"city": "Seoul", "location": "South Korea", "ranking": "1233", "name": "Hongik University"}, {"city": "Arcata", "location": "United States", "ranking": "1234", "name": "Humboldt State University"}, {"city": "Normal", "location": "United States", "ranking": "1235", "name": "Illinois State University"}, {"city": "Terre Haute", "location": "United States", "ranking": "1236", "name": "Indiana State University"}, {"city": "Islamabad", "location": "Pakistan", "ranking": "1237", "name": "International Islamic University, Islamabad (IIU)"}, {"city": "Irkutsk", "location": "Russia", "ranking": "1238", "name": "Irkutsk State University"}, {"city": "Istanbul", "location": "Turkey", "ranking": "1239", "name": "Istanbul Bilgi \u00dcniversitesi"}, {"city": "Izmir", "location": "Turkey", "ranking": "1240", "name": "Izmir Institute of Technology (IZTECH)"}, {"city": "New Delhi", "location": "India", "ranking": "1241", "name": "Jamia Hamdard"}, {"city": "Osaka City", "location": "Japan", "ranking": "1242", "name": "Kindai University (Kinki University)"}, {"city": "Bangkok", "location": "Thailand", "ranking": "1243", "name": "King Mongkut's Institute of Technology Ladkrabang"}, {"city": "Nishinomiya City", "location": "Japan", "ranking": "1244", "name": "Kwansei Gakuin University"}, {"city": "Sibiu", "location": "Romania", "ranking": "1245", "name": "Lucian Blaga University of Sibiu"}, {"city": "Moscow", "location": "Russia", "ranking": "1246", "name": "MIREA - Russian Technological University"}, {"city": "Kampala", "location": "Uganda", "ranking": "1247", "name": "Makerere University"}, {"city": "Mansoura ", "location": "Egypt", "ranking": "1248", "name": "Mansoura University"}, {"city": "Istanbul", "location": "Turkey", "ranking": "1249", "name": "Marmara University"}, {"city": "Tokyo", "location": "Japan", "ranking": "1250", "name": "Meiji University"}, {"city": "Oxford", "location": "United States", "ranking": "1251", "name": "Miami University"}, {"city": "Moscow", "location": "Russia", "ranking": "1252", "name": "Moscow City University"}, {"city": "Moscow", "location": "Russia", "ranking": "1253", "name": "Moscow Pedagogical State University"}, {"city": "Hualien City", "location": "Taiwan", "ranking": "1254", "name": "National Dong Hwa University"}, {"city": "Moscow", "location": "Russia", "ranking": "1255", "name": "National Research University Moscow Power Engineering Institute (MPEI)"}, {"city": "Taipei", "location": "Taiwan", "ranking": "1256", "name": "National Taipei University"}, {"city": "Kyiv", "location": "Ukraine", "ranking": "1257", "name": "National University of Life and Environmental sciences of Ukraine"}, {"city": "Flagstaff", "location": "United States", "ranking": "1258", "name": "Northern Arizona University"}, {"city": "Fort Lauderdale", "location": "United States", "ranking": "1259", "name": "Nova Southeastern University"}, {"city": "Hyderabad", "location": "India", "ranking": "1260", "name": "OSMANIA UNIVERSITY"}, {"city": "Chandigarh", "location": "India", "ranking": "1261", "name": "Panjab University"}, {"city": "Santiago", "location": "Dominican Republic", "ranking": "1262", "name": "Pontificia Universidad Cat\u00f3lica Madre y Maestra (PUCMM)"}, {"city": "Campinas", "location": "Brazil", "ranking": "1263", "name": "Pontif\u00edcia Universidade Cat\u00f3lica de Campinas"}, {"city": "Curitiba", "location": "Brazil", "ranking": "1264", "name": "Pontif\u00edcia Universidade Cat\u00f3lica do Paran\u00e1"}, {"city": "Porto Alegre", "location": "Brazil", "ranking": "1265", "name": "Pontif\u00edcia Universidade Cat\u00f3lica do Rio Grande do Sul (PUCRS)"}, {"city": "Portland", "location": "United States", "ranking": "1266", "name": "Portland State University"}, {"city": "Busan", "location": "South Korea", "ranking": "1267", "name": "Pukyong National University"}, {"city": "Tokyo", "location": "Japan", "ranking": "1268", "name": "Rikkyo University"}, {"city": "Moscow", "location": "Russia", "ranking": "1269", "name": "Russian State Agrarian University - Moscow Timiryazev Agricultural Academy"}, {"city": "Moscow", "location": "Russia", "ranking": "1270", "name": "Russian State University for the Humanities"}, {"city": "Camden", "location": "United States", "ranking": "1271", "name": "Rutgers University\u2013Camden"}, {"city": "Chennai", "location": "India", "ranking": "1272", "name": "SRM Institute of Science and Technology"}, {"city": "Nur-Sultan", "location": "Kazakhstan", "ranking": "1273", "name": "Saken Seifullin Kazakh Agrotechnical University"}, {"city": "San Francisco", "location": "United States", "ranking": "1274", "name": "San Francisco State University"}, {"city": "Shanghai", "location": "China (Mainland)", "ranking": "1275", "name": "Shanghai Normal University"}, {"city": "Shanghai", "location": "China (Mainland)", "ranking": "1276", "name": "Shanghai University of Finance and Economics"}, {"city": "Koto City", "location": "Japan", "ranking": "1277", "name": "Shibaura Institute of Technology"}, {"city": "Nitra", "location": "Slovakia", "ranking": "1278", "name": "Slovak University of Agriculture in Nitra"}, {"city": "Taipei City", "location": "Taiwan", "ranking": "1279", "name": "Soochow University (Taiwan)"}, {"city": "Seoul", "location": "South Korea", "ranking": "1280", "name": "Soongsil University"}, {"city": "Chongqing", "location": "China (Mainland)", "ranking": "1281", "name": "Southwest University"}, {"city": "Suceava", "location": "Romania", "ranking": "1282", "name": "Stefan cel Mare University of Suceava"}, {"city": "Ismailia ", "location": "Egypt", "ranking": "1283", "name": "Suez Canal University"}, {"city": "Nakhon Ratchasima ", "location": "Thailand", "ranking": "1284", "name": "Suranaree University of Technology"}, {"city": "New Taipei City", "location": "Taiwan", "ranking": "1285", "name": "Tamkang University"}, {"city": "Tanta", "location": "Egypt", "ranking": "1286", "name": "Tanta University"}, {"city": "Cluj-Napoca", "location": "Romania", "ranking": "1287", "name": "Technical University of Cluj-Napoca"}, {"city": "Ia\u0219i", "location": "Romania", "ranking": "1288", "name": "The \"Gheorghe Asachi\" Technical University of Iasi"}, {"city": "Zarqa", "location": "Jordan", "ranking": "1289", "name": "The Hashemite University"}, {"city": "Chippendale", "location": "Australia", "ranking": "1290", "name": "The University of Notre Dame, Australia"}, {"city": "Arlington", "location": "United States", "ranking": "1291", "name": "The University of Texas at Arlington"}, {"city": "Pavlodar", "location": "Kazakhstan", "ranking": "1292", "name": "Toraighyrov University"}, {"city": "Brasov", "location": "Romania", "ranking": "1293", "name": "Transilvania University of Brasov"}, {"city": "Taichung City", "location": "Taiwan", "ranking": "1294", "name": "Tunghai University"}, {"city": "M\u00e9rida", "location": "Mexico", "ranking": "1295", "name": "Universidad Autonoma de Yucatan"}, {"city": "Baja California", "location": "Mexico", "ranking": "1296", "name": "Universidad Aut\u00f3noma de Baja California"}, {"city": "Providencia", "location": "Chile", "ranking": "1297", "name": "Universidad Aut\u00f3noma de Chile"}, {"city": "Quer\u00e9taro", "location": "Mexico", "ranking": "1298", "name": "Universidad Aut\u00f3noma de Quer\u00e9taro (UAQ)"}, {"city": "San Luis Potos\u00ed", "location": "Mexico", "ranking": "1299", "name": "Universidad Aut\u00f3noma de San Luis de Potos\u00ed"}, {"city": "Cuernavaca", "location": "Mexico", "ranking": "1300", "name": "Universidad Aut\u00f3noma del Estado de Morelos (UAEM)"}, {"city": "Santiago", "location": "Chile", "ranking": "1301", "name": "Universidad Bernardo O'Higgins"}, {"city": "Bogot\u00e1", "location": "Colombia", "ranking": "1302", "name": "Universidad Cat\u00f3lica de Colombia"}, {"city": "Concepci\u00f3n", "location": "Chile", "ranking": "1303", "name": "Universidad Cat\u00f3lica de la Sant\u00edsima Concepci\u00f3n (UCSC)"}, {"city": "Antofagasta", "location": "Chile", "ranking": "1304", "name": "Universidad Cat\u00f3lica del Norte"}, {"city": "Santiago", "location": "Chile", "ranking": "1305", "name": "Universidad Central de Chile"}, {"city": "Quito", "location": "Ecuador", "ranking": "1306", "name": "Universidad Central del Ecuador"}, {"city": "Mexico City", "location": "Mexico", "ranking": "1307", "name": "Universidad La Salle, M\u00e9xico"}, {"city": "La Paz", "location": "Bolivia", "ranking": "1308", "name": "Universidad Mayor de San Andr\u00e9s (UMSA)"}, {"city": "Caracas", "location": "Venezuela", "ranking": "1309", "name": "Universidad Metropolitana"}, {"city": "Mar del Plata", "location": "Argentina", "ranking": "1310", "name": "Universidad Nacional de Mar del Plata"}, {"city": "Bernal", "location": "Argentina", "ranking": "1311", "name": "Universidad Nacional de Quilmes"}, {"city": "Buenos Aires", "location": "Argentina", "ranking": "1312", "name": "Universidad Nacional de San Mart\u00edn (UNSAM)"}, {"city": "San Miguel de Tucum\u00e1n", "location": "Argentina", "ranking": "1313", "name": "Universidad Nacional de Tucum\u00e0\u00a1n"}, {"city": "Neuqu\u00e9n", "location": "Argentina", "ranking": "1314", "name": "Universidad Nacional del Comahue"}, {"city": "Santa Fe", "location": "Argentina", "ranking": "1315", "name": "Universidad Nacional del Litoral"}, {"city": "Bahia Blanca", "location": "Argentina", "ranking": "1316", "name": "Universidad Nacional del Sur"}, {"city": "Puebla", "location": "Mexico", "ranking": "1317", "name": "Universidad Popular Autonoma del Estado de Puebla (UPAEP)"}, {"city": "La Molina", "location": "Peru", "ranking": "1318", "name": "Universidad San Ignacio de Loyola"}, {"city": "Loja", "location": "Ecuador", "ranking": "1319", "name": "Universidad T\u00e9cnica Particular de Loja"}, {"city": "Pereira", "location": "Colombia", "ranking": "1320", "name": "Universidad Tecnol\u00f3gica de Pereira"}, {"city": "Havana", "location": "Cuba", "ranking": "1321", "name": "Universidad Tecnol\u00f3gica de la Habana Jos\u00e9 Antonio Echeverr\u00eda, Cujae"}, {"city": "Xalapa", "location": "Mexico", "ranking": "1322", "name": "Universidad Veracruzana"}, {"city": "Manizales", "location": "Colombia", "ranking": "1323", "name": "Universidad de Caldas"}, {"city": "Valencia", "location": "Venezuela", "ranking": "1324", "name": "Universidad de Carabobo"}, {"city": "Cartagena", "location": "Colombia", "ranking": "1325", "name": "Universidad de Cartagena"}, {"city": "Cuenca", "location": "Ecuador", "ranking": "1326", "name": "Universidad de Cuenca"}, {"city": "Guanajuato", "location": "Mexico", "ranking": "1327", "name": "Universidad de Guanajuato"}, {"city": "Temuco", "location": "Chile", "ranking": "1328", "name": "Universidad de La Frontera (UFRO)"}, {"city": "Bogot\u00e1", "location": "Colombia", "ranking": "1329", "name": "Universidad de La Salle"}, {"city": "La Serena", "location": "Chile", "ranking": "1330", "name": "Universidad de La Serena"}, {"city": "Quito", "location": "Ecuador", "ranking": "1331", "name": "Universidad de Las Am\u00e9ricas Ecuador"}, {"city": "Medellin", "location": "Colombia", "ranking": "1332", "name": "Universidad de Medell\u00edn"}, {"city": "Panama City", "location": "Panama", "ranking": "1333", "name": "Universidad de Panam\u00e1 - UP"}, {"city": "Lima", "location": "Peru", "ranking": "1334", "name": "Universidad de Piura"}, {"city": "San Juan", "location": "Puerto Rico", "ranking": "1335", "name": "Universidad de Puerto Rico"}, {"city": "Guatemala City", "location": "Guatemala", "ranking": "1336", "name": "Universidad de San Carlos de Guatemala"}, {"city": "Bucaramanga", "location": "Colombia", "ranking": "1337", "name": "Universidad de Santander - UDES"}, {"city": "Hermosillo", "location": "Mexico", "ranking": "1338", "name": "Universidad de Sonora"}, {"city": "Sangolqu\u00ed", "location": "Ecuador", "ranking": "1339", "name": "Universidad de las Fuerzas Armadas ESPE (Ex - Escuela Polit\u00e9cnica del Ej\u00e9rcito)"}, {"city": "Concepci\u00f3n", "location": "Chile", "ranking": "1340", "name": "Universidad del B\u00edo-B\u00edo"}, {"city": "Popayan", "location": "Colombia", "ranking": "1341", "name": "Universidad del Cauca"}, {"city": "Santiago", "location": "Chile", "ranking": "1342", "name": "Universidad del Desarrollo (UDD)"}, {"city": "Santa Marta", "location": "Colombia", "ranking": "1343", "name": "Universidad del Magdalena"}, {"city": "Buenos Aires", "location": "Argentina", "ranking": "1344", "name": "Universidad del Salvador"}, {"city": "Ciudad de M\u00e9xico", "location": "Mexico", "ranking": "1345", "name": "Universidad del Valle de M\u00e9xico (UVM)"}, {"city": "Maracaibo", "location": "Venezuela", "ranking": "1346", "name": "Universidad del Zulia"}, {"city": "Londrina", "location": "Brazil", "ranking": "1347", "name": "Universidade Estadual de Londrina"}, {"city": "Rio de Janeiro", "location": "Brazil", "ranking": "1348", "name": "Universidade Federal Fluminense"}, {"city": "Salvador", "location": "Brazil", "ranking": "1349", "name": "Universidade Federal da Bahia"}, {"city": "Jo\u00e3o Pessoa", "location": "Brazil", "ranking": "1350", "name": "Universidade Federal da Para\u00edba"}, {"city": "Goi\u00e2nia", "location": "Brazil", "ranking": "1351", "name": "Universidade Federal de Goi\u00e1s"}, {"city": "Santa Maria", "location": "Brazil", "ranking": "1352", "name": "Universidade Federal de Santa Maria"}, {"city": "Uberl\u00e2ndia", "location": "Brazil", "ranking": "1353", "name": "Universidade Federal de Uberl\u00e2ndia"}, {"city": "Vi\u00e7osa", "location": "Brazil", "ranking": "1354", "name": "Universidade Federal de Vi\u00e7osa (UFV)"}, {"city": "Fortaleza", "location": "Brazil", "ranking": "1355", "name": "Universidade Federal do Cear\u00e1 (UFC)"}, {"city": "Rio de Janeiro", "location": "Brazil", "ranking": "1356", "name": "Universidade Federal do Estado do Rio de Janeiro"}, {"city": "Bel\u00e9m", "location": "Brazil", "ranking": "1357", "name": "Universidade Federal do Par\u00e1"}, {"city": "Rio Grande do Norte", "location": "Brazil", "ranking": "1358", "name": "Universidade Federal do Rio Grande Do Norte"}, {"city": "S\u00e3o Paulo", "location": "Brazil", "ranking": "1359", "name": "Universidade Presbiteriana Mackenzie"}, {"city": "Florian\u00f3polis", "location": "Brazil", "ranking": "1360", "name": "Universidade do Estado de Santa Catarina"}, {"city": "Chieti", "location": "Italy", "ranking": "1361", "name": "Universita' degli Studi \"G. d'Annunzio\" Chieti Pescara"}, {"city": "Padang", "location": "Indonesia", "ranking": "1362", "name": "Universitas Andalas"}, {"city": "Surakarta", "location": "Indonesia", "ranking": "1363", "name": "Universitas Muhammadiyah Surakarta"}, {"city": "Medan", "location": "Indonesia", "ranking": "1364", "name": "Universitas Sumatera Utara"}, {"city": "Timi\u0219oara", "location": "Romania", "ranking": "1365", "name": "Universitatea de Vest din Timisoara /  West University of Timisoara"}, {"city": "Bucharest", "location": "Romania", "ranking": "1366", "name": "University POLITEHNICA of Bucharest"}, {"city": "Timi\u0219oara", "location": "Romania", "ranking": "1367", "name": "Politehnica University Timisoara, UPT"}, {"city": "Hillah", "location": "Iraq", "ranking": "1368", "name": "University of Babylon"}, {"city": "Basrah", "location": "Iraq", "ranking": "1369", "name": "University of Basrah"}, {"city": "EDMOND", "location": "United States", "ranking": "1370", "name": "University of Central Oklahoma"}, {"city": "Colombo,", "location": "Sri Lanka", "ranking": "1371", "name": "University of Colombo"}, {"city": "Legon", "location": "Ghana", "ranking": "1372", "name": "University of Ghana"}, {"city": "Beijing", "location": "China (Mainland)", "ranking": "1373", "name": "University of International Business and Economics"}, {"city": "Karachi", "location": "Pakistan", "ranking": "1374", "name": "University of Karachi"}, {"city": "Khartoum", "location": "Sudan", "ranking": "1375", "name": "University of Khartoum"}, {"city": "Kragujevac", "location": "Serbia", "ranking": "1376", "name": "University of Kragujevac"}, {"city": "Memphis", "location": "United States", "ranking": "1377", "name": "University of Memphis"}, {"city": "Ni\u0161", "location": "Serbia", "ranking": "1378", "name": "University of Ni\u0161"}, {"city": "Charlotte", "location": "United States", "ranking": "1379", "name": "University of North Carolina at Charlotte"}, {"city": "Greensboro", "location": "United States", "ranking": "1380", "name": "University of North Carolina at Greensboro"}, {"city": "Prince George,", "location": "Canada", "ranking": "1381", "name": "University of Northern British Columbia"}, {"city": "Novi Sad", "location": "Serbia", "ranking": "1382", "name": "University of Novi Sad"}, {"city": "Rzeszow", "location": "Poland", "ranking": "1383", "name": "University of Rzesz\u00f3w"}, {"city": "Sarajevo", "location": "Bosnia & Herzegovina", "ranking": "1384", "name": "University of Sarajevo"}, {"city": "Katowice", "location": "Poland", "ranking": "1385", "name": "University of Silesia in Katowice"}, {"city": "Mobile", "location": "United States", "ranking": "1386", "name": "University of South Alabama (USA)"}, {"city": "Split", "location": "Croatia", "ranking": "1387", "name": "University of Split"}, {"city": "El Paso", "location": "United States", "ranking": "1388", "name": "University of Texas El Paso"}, {"city": "Plzen", "location": "Czechia", "ranking": "1389", "name": "University of West Bohemia"}, {"city": "Bergamo", "location": "Italy", "ranking": "1390", "name": "Universit\u00e0 degli studi di Bergamo"}, {"city": "Lyon", "location": "France", "ranking": "1391", "name": "Universit\u00e9 Jean Moulin Lyon 3"}, {"city": "Paris", "location": "France", "ranking": "1392", "name": "Universit\u00e9 Paris-Nanterre"}, {"city": "Caen", "location": "France", "ranking": "1393", "name": "Universit\u00e9 de Caen Normandie"}, {"city": "Tunis", "location": "Tunisia", "ranking": "1394", "name": "Universit\u00e9 de Tunis"}, {"city": "Tunis", "location": "Tunisia", "ranking": "1395", "name": "Universit\u00e9 de Tunis El Manar"}, {"city": "Ostrava", "location": "Czechia", "ranking": "1396", "name": "VSB - Technical University of Ostrava"}, {"city": "Bellingham", "location": "United States", "ranking": "1397", "name": "Western Washington University"}, {"city": "Irbid", "location": "Jordan", "ranking": "1398", "name": "Yarmouk University"}, {"city": "Yangsan", "location": "South Korea", "ranking": "1399", "name": "Youngsan University"}, {"city": "", "location": "", "ranking": "1400", "name": "Yuan Ze University"}, {"city": "Zagazig", "location": "Egypt", "ranking": "1401", "name": "Zagazig University"}, {"city": "Budapest", "location": "Hungary", "ranking": "1402", "name": "\u00d3buda University"}, {"city": "Yakutiye", "location": "Turkey", "ranking": "1403", "name": "Ataturk University"}, {"city": "Long Beach", "location": "United States", "ranking": "1404", "name": "California State University - Long Beach College of Business Administration"}, {"city": "Adana", "location": "Turkey", "ranking": "1405", "name": "Cukurova University"}, {"city": "Damascus", "location": "Syria", "ranking": "1406", "name": "Damascus University"}, {"city": "Kayseri", "location": "Turkey", "ranking": "1407", "name": "Erciyes University"}, {"city": "Belo Horizonte", "location": "Brazil", "ranking": "1408", "name": "Pontif\u00edcia Universidade Cat\u00f3lica do Minas Gerais"}, {"city": "Adapazari", "location": "Turkey", "ranking": "1409", "name": "Sakarya University"}, {"city": "Khartoum", "location": "Sudan", "ranking": "1410", "name": "Sudan University of Science and Technology"}, {"city": "Guadalajara", "location": "Mexico", "ranking": "1411", "name": "Universidad Aut\u00f3noma de Guadalajara (UAG)"}, {"city": "La Paz", "location": "Bolivia", "ranking": "1412", "name": "Universidad Cat\u00f3lica Boliviana \"San Pablo\""}, {"city": "Guayaquil", "location": "Ecuador", "ranking": "1413", "name": "Universidad Cat\u00f3lica de Santiago de Guayaquil"}, {"city": "Temuco", "location": "Chile", "ranking": "1414", "name": "Universidad Cat\u00f3lica de Temuco"}, {"city": "Cochabamba", "location": "Bolivia", "ranking": "1415", "name": "Universidad Mayor de San Sim\u00f3n"}, {"city": "Morelia", "location": "Mexico", "ranking": "1416", "name": "Universidad de San Nicol\u00e1s de Hidalgo"}, {"city": "Tegucigalpa", "location": "Honduras", "ranking": "1417", "name": "Universidad Nacional Aut\u00f3noma de Honduras (UNAH)"}, {"city": "Cartagena", "location": "Colombia", "ranking": "1418", "name": "Universidad Tecnol\u00f3gica de Bol\u00edvar"}, {"city": "Arica", "location": "Chile", "ranking": "1419", "name": "Universidad de Tarapaca"}, {"city": "Craiova", "location": "Romania", "ranking": "1420", "name": "University of Craiova"}, {"city": "Oradea", "location": "Romania", "ranking": "1421", "name": "University of Oradea"}, {"city": "Rabat", "location": "Morocco", "ranking": "1422", "name": "Universit\u00e9 Mohammed V de Rabat"}]